[
  {"data": "2020-04-20"},
  {"Id":"009dfafdff96472eb3c7c614a4d56e04","CameraType":"拍进京证","District":"昌平区","LocationDescript":"京承高速鲁疃桥下[南北双向]","RoadName":"京承高速鲁疃桥下","SupportCount":2,"OpposeCount":0,"Longitude":116.483283997,"Latitude":40.1055908203,"CreateDateTime":"2020-01-1611:46","UpdateTimeFlag":"2020-01-1611:46","IsPass":"1","Provider":"热心网友","PictureUrl":"1","DiscussCount":1},
  {"Id":"00f0d2a300af4e4eaa702d1114ab828d","CameraType":"拍进京证","District":"丰台区","LocationDescript":"由西向东","RoadName":"三环主路赵公口桥东天桥由西向东","SupportCount":1,"OpposeCount":0,"Longitude":116.417259216,"Latitude":39.8570404053,"CreateDateTime":"2020-01-1611:46","UpdateTimeFlag":"2020-01-1611:46","IsPass":"1","Provider":"热心网友","PictureUrl":null,"DiscussCount":0},
  {"Id":"015f216e39cf4b84a43b4531f7768283","CameraType":"拍进京证","District":"东城区","LocationDescript":"南北双向","RoadName":"雍和宫桥南南北双向","SupportCount":1,"OpposeCount":0,"Longitude":116.41658783,"Latitude":39.947681427,"CreateDateTime":"2020-01-1611:46","UpdateTimeFlag":"2020-01-1611:46","IsPass":"1","Provider":"热心网友","PictureUrl":null,"DiscussCount":0},
  {"Id":"0185e86b44994684a441271027377281","CameraType":"拍进京证","District":"顺义区","LocationDescript":"南北双向","RoadName":"南陈路海洪桥南","SupportCount":1,"OpposeCount":0,"Longitude":116.617297,"Latitude":40.139627,"CreateDateTime":"2020-03-0219:36","UpdateTimeFlag":"2020-03-0219:36","IsPass":"1","Provider":"头条避免违章","PictureUrl":null,"DiscussCount":0},
  {"Id":"0224f033ac684038a7f574dd4d2c819a","CameraType":"拍进京证","District":"朝阳区","LocationDescript":"大郊亭桥北向南过街天桥","RoadName":"四环主路","SupportCount":1,"OpposeCount":0,"Longitude":116.489634,"Latitude":39.884792,"CreateDateTime":"2020-03-1523:03","UpdateTimeFlag":"2020-03-1523:03","IsPass":"1","Provider":"天天","PictureUrl":null,"DiscussCount":2},
  {"Id":"03a8d4e2b3664ee3b9f627b1257ddabc","CameraType":"拍进京证","District":"顺义区","LocationDescript":"六元桥下","RoadName":"G101","SupportCount":1,"OpposeCount":0,"Longitude":116.597719,"Latitude":40.143072,"CreateDateTime":"2020-02-2616:52","UpdateTimeFlag":"2020-02-2616:52","IsPass":"1","Provider":"雷锋","PictureUrl":null,"DiscussCount":0},
  {"Id":"03af06ba182b45c6bf37dbc4e770e408","CameraType":"拍进京证","District":"通州区","LocationDescript":"窑平路王辛庄桥西西向东","RoadName":"窑平路王辛庄桥西西向东","SupportCount":2,"OpposeCount":0,"Longitude":116.691035,"Latitude":40.001947,"CreateDateTime":"2020-03-0418:05","UpdateTimeFlag":"2020-03-0418:05","IsPass":"1","Provider":"雷锋","PictureUrl":null,"DiscussCount":1},
  {"Id":"03f770077ad44ab690d5b04a2278b728","CameraType":"拍进京证","District":"通州区","LocationDescript":"东向西","RoadName":"窑平路王辛庄桥西","SupportCount":2,"OpposeCount":0,"Longitude":116.691217,"Latitude":40.002114,"CreateDateTime":"2020-02-2615:24","UpdateTimeFlag":"2020-02-2615:24","IsPass":"1","Provider":"雷锋","PictureUrl":null,"DiscussCount":0},
  {"Id":"0431f1a8d19a4685a8c0a5fddce06833","CameraType":"拍进京证","District":"丰台区","LocationDescript":"京开高速新发地桥主路双方向","RoadName":"京开高速新发地桥主路","SupportCount":1,"OpposeCount":1,"Longitude":116.345371,"Latitude":39.808693,"CreateDateTime":"2020-02-1418:42","UpdateTimeFlag":"2020-02-1418:42","IsPass":"1","Provider":"无敌兔","PictureUrl":null,"DiscussCount":0},
  {"Id":"0440eda659704d82bdaf556788a0b995","CameraType":"拍进京证","District":"大兴区","LocationDescript":"黄马路与团桂路交叉口东向西","RoadName":"六环路","SupportCount":2,"OpposeCount":0,"Longitude":116.378435,"Latitude":39.721901,"CreateDateTime":"2020-02-2708:49","UpdateTimeFlag":"2020-02-2708:49","IsPass":"1","Provider":"外地人","PictureUrl":null,"DiscussCount":0},
  {"Id":"04c2a70ee8a44fe197d982f692e4477b","CameraType":"拍进京证","District":"通州区","LocationDescript":"北向南","RoadName":"马驹桥北北向南","SupportCount":1,"OpposeCount":0,"Longitude":116.566452026,"Latitude":39.7550735474,"CreateDateTime":"2020-01-1611:46","UpdateTimeFlag":"2020-01-1611:46","IsPass":"1","Provider":"热心网友","PictureUrl":null,"DiscussCount":1},
  {"Id":"04c9cfcb2b694abba72259dd97855b71","CameraType":"拍进京证","District":"丰台区","LocationDescript":"西向东","RoadName":"泉湖东路刘太庄南路口","SupportCount":2,"OpposeCount":0,"Longitude":116.123628,"Latitude":39.793089,"CreateDateTime":"2020-03-0402:24","UpdateTimeFlag":"2020-03-0402:24","IsPass":"1","Provider":"鲁N","PictureUrl":"1","DiscussCount":0},
  {"Id":"059e18ebf6584be6abbcd519fb9898a0","CameraType":"拍进京证","District":"昌平区","LocationDescript":"北环路与鼓楼北街南侧[由北向南]","RoadName":"北环路与鼓楼北街南侧","SupportCount":1,"OpposeCount":0,"Longitude":116.233154,"Latitude":40.229322,"CreateDateTime":"2020-03-2510:31","UpdateTimeFlag":"2020-03-2510:31","IsPass":"1","Provider":"雷锋","PictureUrl":null,"DiscussCount":0},
  {"Id":"05c2e015004b4dc8a11eff0c9777dc60","CameraType":"拍进京证","District":"大兴区","LocationDescript":"北向南","RoadName":"G104南大红门桥（104与南六环路口）","SupportCount":1,"OpposeCount":0,"Longitude":116.463187,"Latitude":39.726533,"CreateDateTime":"2020-02-2011:24","UpdateTimeFlag":"2020-02-2011:24","IsPass":"1","Provider":"匿名","PictureUrl":null,"DiscussCount":0},
  {"Id":"0609ce95bd424b318b1ddfd4eb0fb4e1","CameraType":"拍进京证","District":"海淀区","LocationDescript":"东西双向","RoadName":"为公桥东公交站东西双向","SupportCount":1,"OpposeCount":0,"Longitude":116.310432434,"Latitude":39.9569168091,"CreateDateTime":"2020-01-1611:46","UpdateTimeFlag":"2020-01-1611:46","IsPass":"1","Provider":"热心网友","PictureUrl":null,"DiscussCount":0},
  {"Id":"06bd52373d624712973973682b4a502b","CameraType":"拍进京证","District":"通州区","LocationDescript":"内环辅路东向西方向","RoadName":"马驹桥1号桥西","SupportCount":1,"OpposeCount":0,"Longitude":116.544444,"Latitude":39.74658,"CreateDateTime":"2020-02-2511:13","UpdateTimeFlag":"2020-02-2511:13","IsPass":"1","Provider":"雷锋","PictureUrl":null,"DiscussCount":0},
  {"Id":"06ca62284ce346409c0b0ce160293ca0","CameraType":"拍进京证","District":"西城区","LocationDescript":"西向东","RoadName":"宣武门西大街与长椿街路口西向东","SupportCount":1,"OpposeCount":0,"Longitude":116.363372803,"Latitude":39.8993682861,"CreateDateTime":"2020-01-1611:46","UpdateTimeFlag":"2020-01-1611:46","IsPass":"1","Provider":"热心网友","PictureUrl":null,"DiscussCount":0},
  {"Id":"06f6ebd35c814f2b992c0571fc690677","CameraType":"拍进京证","District":"海淀区","LocationDescript":"厢白旗桥南向北","RoadName":"厢白旗桥南向北(通往体大的小路上)","SupportCount":1,"OpposeCount":0,"Longitude":116.31778717,"Latitude":40.0166320801,"CreateDateTime":"2020-01-1611:46","UpdateTimeFlag":"2020-01-1611:46","IsPass":"1","Provider":"热心网友","PictureUrl":null,"DiscussCount":0},
  {"Id":"06fe0d3d6f6b4ec88614f62ef6dc8421","CameraType":"拍进京证","District":"丰台区","LocationDescript":"北京南站南口北","RoadName":"由北向南","SupportCount":1,"OpposeCount":0,"Longitude":116.37638855,"Latitude":39.861076355,"CreateDateTime":"2020-01-1611:46","UpdateTimeFlag":"2020-01-1611:46","IsPass":"1","Provider":"热心网友","PictureUrl":null,"DiscussCount":0},
  {"Id":"077628a255a3499c9a196d1ff93f299b","CameraType":"拍进京证","District":"昌平区","LocationDescript":"四方向","RoadName":"昌平区北环路与东环路路口四方向","SupportCount":1,"OpposeCount":0,"Longitude":116.239501953,"Latitude":40.229675293,"CreateDateTime":"2020-01-1611:46","UpdateTimeFlag":"2020-01-1611:46","IsPass":"1","Provider":"热心网友","PictureUrl":null,"DiscussCount":1},
  {"Id":"07b04acf8ea444ff8498c6bb15d2d253","CameraType":"拍进京证","District":"海淀区","LocationDescript":"西三环新兴桥南内环","RoadName":"西三环新兴桥南内环南向北","SupportCount":1,"OpposeCount":0,"Longitude":116.310333252,"Latitude":39.9024505615,"CreateDateTime":"2020-01-1611:46","UpdateTimeFlag":"2020-01-1611:46","IsPass":"1","Provider":"热心网友","PictureUrl":null,"DiscussCount":2},
  {"Id":"082bddfc34224e74a315b1e40b86dbba","CameraType":"拍进京证","District":"西城区","LocationDescript":"闹市口[由北向南]","RoadName":"闹市口","SupportCount":1,"OpposeCount":0,"Longitude":116.36327,"Latitude":39.901153,"CreateDateTime":"2020-03-2509:20","UpdateTimeFlag":"2020-03-2509:20","IsPass":"1","Provider":"网络蜘蛛","PictureUrl":null,"DiscussCount":0},
  {"Id":"084e3fa6d7c14f639798817963ebe1d8","CameraType":"拍早晚高峰","District":"丰台区","LocationDescript":"西向东","RoadName":"石榴园中街(石榴派前)","SupportCount":1,"OpposeCount":0,"Longitude":116.420806,"Latitude":39.845882,"CreateDateTime":"2020-03-0621:02","UpdateTimeFlag":"2020-03-0621:02","IsPass":"1","Provider":"LIKERTENG","PictureUrl":null,"DiscussCount":1},
  {"Id":"08b267809e8e416682da961570657a92","CameraType":"拍早晚高峰","District":"丰台区","LocationDescript":"榴乡桥桥下辅路由东向西，在东北角","RoadName":"榴乡桥","SupportCount":1,"OpposeCount":0,"Longitude":116.42371,"Latitude":39.832572,"CreateDateTime":"2020-04-0605:47","UpdateTimeFlag":"2020-04-0605:47","IsPass":"1","Provider":"LGS","PictureUrl":null,"DiscussCount":0},
  {"Id":"08da262532304e95b9091a4b1f234251","CameraType":"拍进京证","District":"顺义区","LocationDescript":"龙塘路迎晨桥西【24小时拍】[注意:对方未提供定位信息请参照描述]","RoadName":"龙塘路","SupportCount":1,"OpposeCount":0,"Longitude":116.623185,"Latitude":40.128886,"CreateDateTime":"2020-02-1811:07","UpdateTimeFlag":"2020-02-1811:07","IsPass":"1","Provider":"北京官网数据","PictureUrl":null,"DiscussCount":0},
  {"Id":"096cecfb5198491c93b801e757533a6e","CameraType":"拍进京证","District":"朝阳区","LocationDescript":"东西双向","RoadName":"观音堂桥西东西双向","SupportCount":1,"OpposeCount":0,"Longitude":116.545921326,"Latitude":39.8828163147,"CreateDateTime":"2020-01-1611:46","UpdateTimeFlag":"2020-01-1611:46","IsPass":"1","Provider":"热心网友","PictureUrl":null,"DiscussCount":0},
  {"Id":"0a1f45898013494998b7054f7549832f","CameraType":"拍进京证","District":"昌平区","LocationDescript":"北向南","RoadName":"同成街与育知路路口北","SupportCount":1,"OpposeCount":1,"Longitude":116.330032,"Latitude":40.07132,"CreateDateTime":"2020-02-2501:48","UpdateTimeFlag":"2020-02-2501:48","IsPass":"1","Provider":"匿名","PictureUrl":null,"DiscussCount":1},
  {"Id":"0a4f5b069f944ef496ee2ec3f3a7770f","CameraType":"拍进京证","District":"顺义区","LocationDescript":"一号航站楼机场高速出口南向北","RoadName":"机场高速","SupportCount":1,"OpposeCount":0,"Longitude":116.588675,"Latitude":40.076964,"CreateDateTime":"2020-02-1814:28","UpdateTimeFlag":"2020-02-1814:28","IsPass":"1","Provider":"热心人","PictureUrl":null,"DiscussCount":0},
  {"Id":"0a90b6ac6f5247d3aaf30504751bb0cb","CameraType":"拍进京证","District":"昌平区","LocationDescript":"府学路与水库路路口西侧东向西","RoadName":"府学路","SupportCount":1,"OpposeCount":0,"Longitude":116.260936,"Latitude":40.221658,"CreateDateTime":"2020-03-2621:04","UpdateTimeFlag":"2020-03-2621:04","IsPass":"1","Provider":"东子","PictureUrl":"1","DiscussCount":0},
  {"Id":"0b951f962a0a4e329184e0f673bb62bd","CameraType":"拍进京证","District":"通州区","LocationDescript":"京津高速台湖收费站北[南北双向]","RoadName":"京津高速台湖收费站北","SupportCount":1,"OpposeCount":3,"Longitude":116.593515,"Latitude":39.820753,"CreateDateTime":"2020-03-2509:35","UpdateTimeFlag":"2020-03-2509:35","IsPass":"1","Provider":"网络蜘蛛","PictureUrl":null,"DiscussCount":3},
  {"Id":"0c6fed4152744096a68eb56517a41750","CameraType":"拍进京证","District":"海淀区","LocationDescript":"中国纪检监察院由西向东","RoadName":"翠湖北路","SupportCount":1,"OpposeCount":1,"Longitude":116.164734,"Latitude":40.098672,"CreateDateTime":"2020-02-2714:28","UpdateTimeFlag":"2020-02-2714:28","IsPass":"1","Provider":"xjlie","PictureUrl":null,"DiscussCount":1},
  {"Id":"0dc0a03e70524e89943e9df02bd44d98","CameraType":"拍进京证","District":"朝阳区","LocationDescript":"十里堡路口西侧[东西双向]","RoadName":"十里堡路口西侧","SupportCount":1,"OpposeCount":0,"Longitude":116.498153,"Latitude":39.923046,"CreateDateTime":"2020-03-2513:03","UpdateTimeFlag":"2020-03-2513:03","IsPass":"1","Provider":"雷锋","PictureUrl":null,"DiscussCount":1},
  {"Id":"0e5a6559bd524685aff0d0573fe9668c","CameraType":"拍进京证","District":"大兴区","LocationDescript":"南中轴路与中鼎路交叉口南北双向","RoadName":"中鼎路","SupportCount":1,"OpposeCount":0,"Longitude":116.405467,"Latitude":39.733794,"CreateDateTime":"2020-04-1417:17","UpdateTimeFlag":"2020-04-1417:17","IsPass":"1","Provider":"卡卡西","PictureUrl":null,"DiscussCount":0},
  {"Id":"0e9ee57c60e74adeae319b8ca4933892","CameraType":"拍进京证","District":"海淀区","LocationDescript":"北向南","RoadName":"林萃桥南","SupportCount":1,"OpposeCount":0,"Longitude":116.374375,"Latitude":40.021931,"CreateDateTime":"2020-04-1209:46","UpdateTimeFlag":"2020-04-1209:46","IsPass":"1","Provider":"李","PictureUrl":null,"DiscussCount":0},
  {"Id":"0ea23c468955472697dbf8b2ea66bd05","CameraType":"拍进京证","District":"大兴区","LocationDescript":"金星桥辅路[由南向北]","RoadName":"金星桥辅路","SupportCount":1,"OpposeCount":0,"Longitude":116.343161,"Latitude":39.762963,"CreateDateTime":"2020-03-1620:15","UpdateTimeFlag":"2020-03-1620:15","IsPass":"1","Provider":"小星星","PictureUrl":null,"DiscussCount":1},
  {"Id":"0edb55748b994f009bbad879b17e4d5a","CameraType":"拍早晚高峰","District":"丰台区","LocationDescript":"东向西","RoadName":"梅市口路","SupportCount":1,"OpposeCount":0,"Longitude":116.226,"Latitude":39.870265,"CreateDateTime":"2020-03-0413:11","UpdateTimeFlag":"2020-03-0413:11","IsPass":"1","Provider":"心灵鸡汤","PictureUrl":null,"DiscussCount":0},
  {"Id":"0fdb139b259142cf9311fe35ac758739","CameraType":"拍进京证","District":"西城区","LocationDescript":"复兴路与西翠路口[东向西]","RoadName":"复兴路与西翠路口","SupportCount":1,"OpposeCount":0,"Longitude":116.283384,"Latitude":39.9075,"CreateDateTime":"2020-04-0313:09","UpdateTimeFlag":"2020-04-0313:09","IsPass":"1","Provider":"自由","PictureUrl":null,"DiscussCount":0},
  {"Id":"111b7097552748bd8c7ba0125d8f3457","CameraType":"拍进京证","District":"丰台区","LocationDescript":"玉泉营桥东过街桥[外环主辅路]","RoadName":"玉泉营桥东过街桥","SupportCount":1,"OpposeCount":0,"Longitude":116.346705,"Latitude":39.849877,"CreateDateTime":"2020-04-1312:49","UpdateTimeFlag":"2020-04-1312:49","IsPass":"1","Provider":"匿名","PictureUrl":"1","DiscussCount":0},
  {"Id":"1132373ec1a34bbbb68896d13aaa50b1","CameraType":"拍进京证","District":"通州区","LocationDescript":"六环内","RoadName":"马团路西段物流路交叉","SupportCount":4,"OpposeCount":0,"Longitude":116.6013,"Latitude":39.76104,"CreateDateTime":"2020-03-0515:08","UpdateTimeFlag":"2020-03-0515:08","IsPass":"1","Provider":"雷锋","PictureUrl":null,"DiscussCount":3},
  {"Id":"113626dc327b403abaf5c866d88b6b04","CameraType":"拍进京证","District":"朝阳区","LocationDescript":"东北西南双向，靠近七圣南路交叉口","RoadName":"西坝河南路东北西南双向靠近七圣南路交叉口","SupportCount":1,"OpposeCount":0,"Longitude":116.4373703,"Latitude":39.9632110596,"CreateDateTime":"2020-01-1611:46","UpdateTimeFlag":"2020-01-1611:46","IsPass":"1","Provider":"热心网友","PictureUrl":null,"DiscussCount":0},
  {"Id":"1158a01a2e4b4082bd2f0b6680cd55b4","CameraType":"拍进京证","District":"海淀区","LocationDescript":"南向北方向","RoadName":"学清路北口","SupportCount":1,"OpposeCount":0,"Longitude":116.354445,"Latitude":40.021293,"CreateDateTime":"2020-02-2510:24","UpdateTimeFlag":"2020-02-2510:24","IsPass":"1","Provider":"雷锋","PictureUrl":null,"DiscussCount":0},
  {"Id":"11cf8d8dbb5e464b84438e607e12ae34","CameraType":"拍进京证","District":"东城区","LocationDescript":"南向北","RoadName":"玉蜓桥南南向北","SupportCount":1,"OpposeCount":0,"Longitude":116.421508789,"Latitude":39.8697929382,"CreateDateTime":"2020-01-1611:46","UpdateTimeFlag":"2020-01-1611:46","IsPass":"1","Provider":"热心网友","PictureUrl":null,"DiscussCount":0},
  {"Id":"11d4f501cbb24d5c8c91e4cb73ee3822","CameraType":"进京证与早晚高峰","District":"大兴区","LocationDescript":"黄马路磁各庄桥东(东向西)","RoadName":"黄马路磁各庄桥东","SupportCount":1,"OpposeCount":0,"Longitude":116.410594,"Latitude":39.721114,"CreateDateTime":"2020-02-1315:31","UpdateTimeFlag":"2020-02-1315:31","IsPass":"1","Provider":"蓝色大海","PictureUrl":null,"DiscussCount":0},
  {"Id":"11e406b282034e7e8f084d40508a732c","CameraType":"拍进京证","District":"大兴区","LocationDescript":"兴业大街与永华路路口[东向西]","RoadName":"兴业大街与永华路","SupportCount":1,"OpposeCount":0,"Longitude":116.328375,"Latitude":39.727002,"CreateDateTime":"2020-03-0415:14","UpdateTimeFlag":"2020-03-0415:14","IsPass":"1","Provider":"自由大哥","PictureUrl":"1","DiscussCount":2},
  {"Id":"13111f548f2746029b8a6b0d0cd48311","CameraType":"拍进京证","District":"怀柔区","LocationDescript":"北向南","RoadName":"怀柔劳动大厦路口北向南","SupportCount":1,"OpposeCount":0,"Longitude":116.644454956,"Latitude":40.3413848877,"CreateDateTime":"2020-01-1611:46","UpdateTimeFlag":"2020-01-1611:46","IsPass":"1","Provider":"热心网友","PictureUrl":null,"DiscussCount":0},
  {"Id":"13f24aa8ac6f45fba448f84b9912f469","CameraType":"拍进京证","District":"大兴区","LocationDescript":"兴旺路与金星路路口[南向北]和[西向东]都拍","RoadName":"兴旺路与金星路路口","SupportCount":1,"OpposeCount":0,"Longitude":116.30951,"Latitude":39.763241,"CreateDateTime":"2020-03-2509:45","UpdateTimeFlag":"2020-03-2509:45","IsPass":"1","Provider":"网络蜘蛛","PictureUrl":"1","DiscussCount":1},
  {"Id":"140363827bbe4f59bce19bac9d28356e","CameraType":"拍进京证","District":"朝阳区","LocationDescript":"三环主路分钟寺桥内环主路","RoadName":"三环主路","SupportCount":1,"OpposeCount":0,"Longitude":116.454369,"Latitude":39.862741,"CreateDateTime":"2020-03-2015:21","UpdateTimeFlag":"2020-03-2015:21","IsPass":"1","Provider":"受害者","PictureUrl":null,"DiscussCount":0},
  {"Id":"14229adbcff848e49a9e6bf8be04fab2","CameraType":"拍进京证","District":"大兴区","LocationDescript":"五环路兴华桥东[外环方向]","RoadName":"五环路兴华桥东","SupportCount":1,"OpposeCount":1,"Longitude":116.331474,"Latitude":39.779309,"CreateDateTime":"2020-03-2510:06","UpdateTimeFlag":"2020-03-2510:06","IsPass":"1","Provider":"雷锋","PictureUrl":null,"DiscussCount":0},
  {"Id":"1504cb21ba4d4236a7613aea6f423557","CameraType":"拍进京证","District":"大兴区","LocationDescript":"兴丰大街与北兴路路口[由西向东]","RoadName":"兴丰大街与北兴路路口","SupportCount":1,"OpposeCount":0,"Longitude":116.334889,"Latitude":39.776637,"CreateDateTime":"2020-04-0120:04","UpdateTimeFlag":"2020-04-0113:04","IsPass":"1","Provider":"匿名","PictureUrl":null,"DiscussCount":0},
  {"Id":"15e8bfb7034541cc9cd64d5b0e55fb18","CameraType":"拍进京证","District":"大兴区","LocationDescript":"双向，内侧车道和辅路不拍","RoadName":"京开金星桥南天桥双向","SupportCount":1,"OpposeCount":0,"Longitude":116.343391418,"Latitude":39.7593727112,"CreateDateTime":"2020-01-1611:46","UpdateTimeFlag":"2020-01-1611:46","IsPass":"1","Provider":"热心网友","PictureUrl":null,"DiscussCount":0},
  {"Id":"169403d5dcd244518fac380af08b489d","CameraType":"拍进京证","District":"丰台区","LocationDescript":"京港澳高速京良桥下[南北双向]","RoadName":"京港澳高速京良桥下","SupportCount":1,"OpposeCount":0,"Longitude":116.162947,"Latitude":39.77428,"CreateDateTime":"2020-01-1611:46","UpdateTimeFlag":"2020-01-1611:46","IsPass":"1","Provider":"热心网友、2月24号被拍","PictureUrl":"1","DiscussCount":1},
  {"Id":"16d6fd477a064d28a23941791c2f2147","CameraType":"拍进京证","District":"昌平区","LocationDescript":"南向北","RoadName":"京藏高速西沙桥（辅路）","SupportCount":1,"OpposeCount":0,"Longitude":116.246012,"Latitude":40.164701,"CreateDateTime":"2020-02-2615:18","UpdateTimeFlag":"2020-02-2615:18","IsPass":"1","Provider":"雷锋","PictureUrl":null,"DiscussCount":1},
  {"Id":"172618ed9a364adc869f07d6cd1991c3","CameraType":"拍早晚高峰","District":"朝阳区","LocationDescript":"红领巾桥内环主路","RoadName":"红领巾桥内环主路","SupportCount":1,"OpposeCount":0,"Longitude":116.489833,"Latitude":39.922831,"CreateDateTime":"2020-03-2510:26","UpdateTimeFlag":"2020-03-2510:26","IsPass":"1","Provider":"雷锋","PictureUrl":null,"DiscussCount":3},
  {"Id":"178da747c18249afb84d5a50a773ece1","CameraType":"拍进京证","District":"顺义区","LocationDescript":"京平高速温榆大桥[西向东]注意：温大桥已经[东西双向]拍]","RoadName":"京平高速温榆大桥","SupportCount":4,"OpposeCount":0,"Longitude":116.570681,"Latitude":40.035768,"CreateDateTime":"2020-04-0221:36","UpdateTimeFlag":"2020-04-0221:36","IsPass":"1","Provider":"QUN","PictureUrl":"1","DiscussCount":1},
  {"Id":"18500a4bbc3f4b38b476ad37aee8bcf9","CameraType":"拍进京证","District":"通州区","LocationDescript":"通胡大街古城西桥西[西向东]古城西桥桥下","RoadName":"通胡大街古城西桥西","SupportCount":1,"OpposeCount":0,"Longitude":116.708511,"Latitude":39.918381,"CreateDateTime":"2020-02-2809:08","UpdateTimeFlag":"2020-02-2809:08","IsPass":"1","Provider":"雷锋-赵、辉、风寒","PictureUrl":null,"DiscussCount":1},
  {"Id":"18dbddb5f2b24cbcb313aac15b9715c7","CameraType":"拍进京证","District":"丰台区","LocationDescript":"万丰路与吴家场路","RoadName":"万丰路与吴家场路","SupportCount":1,"OpposeCount":0,"Longitude":116.295072,"Latitude":39.891127,"CreateDateTime":"2020-03-0723:34","UpdateTimeFlag":"2020-03-0723:34","IsPass":"1","Provider":"猫猫","PictureUrl":null,"DiscussCount":2},
  {"Id":"18dfedcc500d4cb1ae649c69869b9cba","CameraType":"拍进京证","District":"东城区","LocationDescript":"北京站东街与大羊毛胡同路口，西向东","RoadName":"北京站东街与大羊毛胡同路口西向东","SupportCount":1,"OpposeCount":0,"Longitude":116.432357788,"Latitude":39.9050598145,"CreateDateTime":"2020-01-1611:46","UpdateTimeFlag":"2020-01-1611:46","IsPass":"1","Provider":"热心网友","PictureUrl":null,"DiscussCount":0},
  {"Id":"19271d2a5424405ab873b84b1442aa54","CameraType":"拍进京证","District":"丰台区","LocationDescript":"欣羊桥北[东西双向][南北双向]","RoadName":"欣羊桥北","SupportCount":1,"OpposeCount":0,"Longitude":116.313819,"Latitude":39.789134,"CreateDateTime":"2020-04-1411:11","UpdateTimeFlag":"2020-04-1411:11","IsPass":"1","Provider":"匿名","PictureUrl":"1","DiscussCount":0},
  {"Id":"1964cb78e88f484db0ce6e41e44d49fb","CameraType":"拍进京证","District":"石景山区","LocationDescript":"东西双向辅路双向不拍","RoadName":"衙门口桥东天桥东西双向","SupportCount":1,"OpposeCount":0,"Longitude":116.222808838,"Latitude":39.896938324,"CreateDateTime":"2020-01-1611:46","UpdateTimeFlag":"2020-01-1611:46","IsPass":"1","Provider":"热心网友","PictureUrl":null,"DiscussCount":1},
  {"Id":"1a7581759409474fbfabba6331037989","CameraType":"拍进京证","District":"大兴区","LocationDescript":"辅高路与乐园路[东向西]","RoadName":"辅高路与乐园路","SupportCount":1,"OpposeCount":0,"Longitude":116.340146,"Latitude":39.766809,"CreateDateTime":"2020-03-0723:29","UpdateTimeFlag":"2020-03-0723:29","IsPass":"1","Provider":"辉哥","PictureUrl":null,"DiscussCount":0},
  {"Id":"1b1f24f0da3145d787f73706b0b04927","CameraType":"拍早晚高峰","District":"大兴区","LocationDescript":"狼垡东路十字路口","RoadName":"狼垡东路","SupportCount":1,"OpposeCount":1,"Longitude":116.287601,"Latitude":39.782186,"CreateDateTime":"2020-03-1000:18","UpdateTimeFlag":"2020-03-1000:18","IsPass":"1","Provider":"fk","PictureUrl":null,"DiscussCount":0},
  {"Id":"1c69403a6d364d788b7cecce191b8199","CameraType":"拍进京证","District":"朝阳区","LocationDescript":"肖村桥东过街天桥[内外环双向]","RoadName":"肖村桥东过街天桥","SupportCount":1,"OpposeCount":0,"Longitude":116.453659,"Latitude":39.832722,"CreateDateTime":"2020-04-0913:32","UpdateTimeFlag":"2020-04-0913:32","IsPass":"1","Provider":"匿名","PictureUrl":"1","DiscussCount":0},
  {"Id":"1c69c7e9242d4b2fbf3a4f92b8749163","CameraType":"拍进京证","District":"东城区","LocationDescript":"东西双向","RoadName":"光明桥西东西双向","SupportCount":1,"OpposeCount":0,"Longitude":116.44140625,"Latitude":39.8844490051,"CreateDateTime":"2020-01-1611:46","UpdateTimeFlag":"2020-01-1611:46","IsPass":"1","Provider":"热心网友","PictureUrl":null,"DiscussCount":0},
  {"Id":"1d1463627314449ab1b8cdc4c12aef4f","CameraType":"拍进京证","District":"丰台区","LocationDescript":"东向西","RoadName":"泉湖东路刘太庄南路口","SupportCount":2,"OpposeCount":0,"Longitude":116.131076,"Latitude":39.792533,"CreateDateTime":"2020-02-2015:25","UpdateTimeFlag":"2020-02-2015:25","IsPass":"1","Provider":"鲁K99","PictureUrl":null,"DiscussCount":2},
  {"Id":"1dea3f8dd50a4154ab669e1b3c0f156d","CameraType":"拍进京证","District":"朝阳区","LocationDescript":"荣华桥北[南北双向]","RoadName":"荣华桥北","SupportCount":2,"OpposeCount":0,"Longitude":116.488037109,"Latitude":39.8187103271,"CreateDateTime":"2020-01-1611:46","UpdateTimeFlag":"2020-01-1611:46","IsPass":"1","Provider":"热心网友","PictureUrl":"1","DiscussCount":2},
  {"Id":"1e42ce62f070411ab456061627c89442","CameraType":"拍进京证","District":"怀柔区","LocationDescript":"怀柔四中路口北向南","RoadName":"怀柔四中路口北向南","SupportCount":1,"OpposeCount":0,"Longitude":116.630473,"Latitude":40.332876,"CreateDateTime":"2020-02-1723:57","UpdateTimeFlag":"2020-02-1723:57","IsPass":"1","Provider":"头条@避免违章","PictureUrl":null,"DiscussCount":1},
  {"Id":"1e593eb82e674466876c13de0a9dc602","CameraType":"拍进京证","District":"西城区","LocationDescript":"月坛南桥东[由东向西]","RoadName":"月坛南桥东","SupportCount":1,"OpposeCount":0,"Longitude":116.357832,"Latitude":39.91393,"CreateDateTime":"2020-03-2510:20","UpdateTimeFlag":"2020-03-2510:20","IsPass":"1","Provider":"匿名","PictureUrl":null,"DiscussCount":0},
  {"Id":"1e949eba02644d959eeee5f39d81b3c7","CameraType":"拍进京证","District":"延庆区","LocationDescript":"安康小区东南门[由南向北]","RoadName":"延康路","SupportCount":1,"OpposeCount":0,"Longitude":115.968549,"Latitude":40.453445,"CreateDateTime":"2020-03-1313:34","UpdateTimeFlag":"2020-03-1313:34","IsPass":"1","Provider":"匿名","PictureUrl":null,"DiscussCount":0},
  {"Id":"1f2a6af8c5dc41e19e0ac51630d56236","CameraType":"拍进京证","District":"丰台区","LocationDescript":"小屯路（城乡超市门口）[北向南]","RoadName":"小屯路（城乡超市门口）","SupportCount":1,"OpposeCount":1,"Longitude":116.252844,"Latitude":39.87563,"CreateDateTime":"2020-04-1020:47","UpdateTimeFlag":"2020-04-1020:47","IsPass":"1","Provider":"匿名","PictureUrl":"1","DiscussCount":1},
  {"Id":"1f4011f18abc4702ac6ce6cbe95225bd","CameraType":"拍进京证","District":"海淀区","LocationDescript":"彩和坊路和善缘街交叉口[由北向南]","RoadName":"彩和坊路和善缘街交叉口","SupportCount":1,"OpposeCount":0,"Longitude":116.308234,"Latitude":39.980153,"CreateDateTime":"2020-03-2511:45","UpdateTimeFlag":"2020-03-2511:45","IsPass":"1","Provider":"雷锋","PictureUrl":null,"DiscussCount":0},
  {"Id":"2007594cfef143afb7b0b35ee543f21b","CameraType":"拍进京证","District":"延庆区","LocationDescript":"东西方向","RoadName":"四幼门口","SupportCount":1,"OpposeCount":0,"Longitude":115.99192,"Latitude":40.46799,"CreateDateTime":"2020-02-2617:16","UpdateTimeFlag":"2020-02-2617:16","IsPass":"1","Provider":"雷锋","PictureUrl":null,"DiscussCount":0},
  {"Id":"2062cd613967429da9a9d6ee6da38a25","CameraType":"拍进京证","District":"朝阳区","LocationDescript":"惠新东街惠新东桥南[由南向北]","RoadName":"惠新东街惠新东桥南","SupportCount":2,"OpposeCount":0,"Longitude":116.424091,"Latitude":39.988866,"CreateDateTime":"2020-03-2414:58","UpdateTimeFlag":"2020-03-2414:58","IsPass":"1","Provider":"雷锋","PictureUrl":null,"DiscussCount":0},
  {"Id":"206bfe6d1a0b438ab45dbafd5d4cdedb","CameraType":"拍进京证","District":"大兴区","LocationDescript":"龙和路清源路口[注意这是一个大概位置,对方未提供详细方向信息]","RoadName":"龙和路清源路口","SupportCount":1,"OpposeCount":0,"Longitude":116.343055,"Latitude":39.742502,"CreateDateTime":"2020-03-1811:34","UpdateTimeFlag":"2020-03-1811:34","IsPass":"1","Provider":"被拍了","PictureUrl":null,"DiscussCount":1},
  {"Id":"212d7495d19e4b939109d0833b22c852","CameraType":"拍进京证","District":"东城区","LocationDescript":"东西双向","RoadName":"南新仓天桥东西双向","SupportCount":1,"OpposeCount":0,"Longitude":116.430938721,"Latitude":39.9336967468,"CreateDateTime":"2020-01-1611:46","UpdateTimeFlag":"2020-01-1611:46","IsPass":"1","Provider":"热心网友","PictureUrl":null,"DiscussCount":0},
  {"Id":"212e5069d3684f3c919c4d5817a8b0ae","CameraType":"拍早晚高峰","District":"海淀区","LocationDescript":"燕保大厦红绿灯路口","RoadName":"小屯路","SupportCount":1,"OpposeCount":0,"Longitude":116.252955,"Latitude":39.903835,"CreateDateTime":"2020-04-1813:58","UpdateTimeFlag":"2020-04-1813:58","IsPass":"1","Provider":"匿名","PictureUrl":null,"DiscussCount":0},
  {"Id":"2157de76a041442db17397051d2b70de","CameraType":"拍进京证","District":"大兴区","LocationDescript":"清源路与兴丰大街交叉口东（东向西被拍）","RoadName":"清源路","SupportCount":1,"OpposeCount":0,"Longitude":116.340491,"Latitude":39.742602,"CreateDateTime":"2020-02-2807:55","UpdateTimeFlag":"2020-02-2807:55","IsPass":"1","Provider":"雷锋","PictureUrl":null,"DiscussCount":0},
  {"Id":"217b9ea94575434f9e46f2ed30bbe443","CameraType":"拍进京证","District":"朝阳区","LocationDescript":"五环主路白家楼桥[双向拍]","RoadName":"五环主路白家楼桥","SupportCount":1,"OpposeCount":0,"Longitude":116.543072,"Latitude":39.92487,"CreateDateTime":"2020-03-2511:29","UpdateTimeFlag":"2020-03-2511:29","IsPass":"1","Provider":"雷锋","PictureUrl":null,"DiscussCount":1},
  {"Id":"218621b7a8fc407eb09842d35bedf675","CameraType":"拍进京证","District":"石景山区","LocationDescript":"东西双向","RoadName":"老山南路西东西双向","SupportCount":1,"OpposeCount":0,"Longitude":116.212120056,"Latitude":39.9106330872,"CreateDateTime":"2020-01-1611:46","UpdateTimeFlag":"2020-01-1611:46","IsPass":"1","Provider":"热心网友","PictureUrl":null,"DiscussCount":0},
  {"Id":"21962222151c475690d8f23107816e97","CameraType":"拍进京证","District":"大兴区","LocationDescript":"兴华大街与北兴路交叉口[由东向西]","RoadName":"兴华大街与北兴路交叉口","SupportCount":1,"OpposeCount":2,"Longitude":116.329975,"Latitude":39.777062,"CreateDateTime":"2020-03-2511:08","UpdateTimeFlag":"2020-03-2511:08","IsPass":"1","Provider":"网络蜘蛛","PictureUrl":null,"DiscussCount":1},
  {"Id":"228bea5eac884469864e9ecea4491823","CameraType":"拍进京证","District":"通州区","LocationDescript":"马驹桥北南向北方向","RoadName":"京沪高速","SupportCount":1,"OpposeCount":0,"Longitude":116.563253,"Latitude":39.757944,"CreateDateTime":"2020-03-0517:42","UpdateTimeFlag":"2020-03-0517:42","IsPass":"1","Provider":"逆行者","PictureUrl":null,"DiscussCount":0},
  {"Id":"22c1c35ccb8946cf9b6939e2fffda39f","CameraType":"拍进京证","District":"昌平区","LocationDescript":"昌平北环西向东","RoadName":"北环路与西环路路口东侧西向东","SupportCount":1,"OpposeCount":0,"Longitude":116.226938,"Latitude":40.229301,"CreateDateTime":"2020-03-0614:20","UpdateTimeFlag":"2020-03-0614:20","IsPass":"1","Provider":"雷锋","PictureUrl":null,"DiscussCount":0},
  {"Id":"22d8f41073954e5e89a548b21e40d846","CameraType":"拍进京证","District":"海淀区","LocationDescript":"南北双向","RoadName":"功德寺桥南南北双向","SupportCount":1,"OpposeCount":0,"Longitude":116.257164001,"Latitude":40.0013504028,"CreateDateTime":"2020-01-1611:46","UpdateTimeFlag":"2020-01-1611:46","IsPass":"1","Provider":"热心网友","PictureUrl":null,"DiscussCount":0},
  {"Id":"2319e14f886d41f4b4da01883958c7ce","CameraType":"拍进京证","District":"朝阳区","LocationDescript":"广化大街化工路口北第一个信号灯[由北向南]","RoadName":"广化大街化工路口北第一个信号灯","SupportCount":1,"OpposeCount":0,"Longitude":116.503489,"Latitude":39.888427,"CreateDateTime":"2020-03-2015:19","UpdateTimeFlag":"2020-03-2015:19","IsPass":"1","Provider":"邓晓光","PictureUrl":null,"DiscussCount":0},
  {"Id":"23538126919d40769758cc08635497e9","CameraType":"拍进京证","District":"昌平区","LocationDescript":"北向南","RoadName":"回昌路北六环出口","SupportCount":5,"OpposeCount":0,"Longitude":116.289151,"Latitude":40.175377,"CreateDateTime":"2020-02-2707:49","UpdateTimeFlag":"2020-02-2707:49","IsPass":"1","Provider":"雷","PictureUrl":null,"DiscussCount":6},
  {"Id":"2362fa947c28413490bec8504bcf4cd9","CameraType":"拍早晚高峰","District":"朝阳区","LocationDescript":"青年路国美第一城路口[北向南]","RoadName":"青年路国美第一城路口","SupportCount":1,"OpposeCount":0,"Longitude":116.517275,"Latitude":39.931405,"CreateDateTime":"2020-04-1622:34","UpdateTimeFlag":"2020-04-1712:34","IsPass":"1","Provider":"匿名","PictureUrl":"1","DiscussCount":0},
  {"Id":"238688b8321c423498546bc2291f4c60","CameraType":"拍进京证","District":"昌平区","LocationDescript":"北环路与东环路路口南侧[由北向南]","RoadName":"北环路与东环路路口南侧","SupportCount":2,"OpposeCount":0,"Longitude":116.239468,"Latitude":40.228728,"CreateDateTime":"2020-03-2509:47","UpdateTimeFlag":"2020-03-2509:47","IsPass":"1","Provider":"网络蜘蛛","PictureUrl":"1","DiscussCount":1},
  {"Id":"23b336f719fa4a7ba13c825ce0d1e150","CameraType":"拍进京证","District":"海淀区","LocationDescript":"成府路王庄路口（五道口电影院旁边那个路口）[由东西向]","RoadName":"成府路王庄路口","SupportCount":1,"OpposeCount":0,"Longitude":116.340245,"Latitude":39.992978,"CreateDateTime":"2020-03-2511:00","UpdateTimeFlag":"2020-03-2511:00","IsPass":"1","Provider":"雷锋","PictureUrl":null,"DiscussCount":0},
  {"Id":"23fbf20d7b4b42f3a8f76cac4255db79","CameraType":"拍进京证","District":"朝阳区","LocationDescript":"由北向南","RoadName":"静安东街北口南北向南","SupportCount":1,"OpposeCount":0,"Longitude":116.449417114,"Latitude":39.9598655701,"CreateDateTime":"2020-01-1611:46","UpdateTimeFlag":"2020-01-1611:46","IsPass":"1","Provider":"热心网友","PictureUrl":null,"DiscussCount":0},
  {"Id":"24075c107525490ca003eba52b4b4f6e","CameraType":"拍进京证","District":"顺义区","LocationDescript":"机场生活区小天竺路","RoadName":"机场生活区小天竺路","SupportCount":2,"OpposeCount":1,"Longitude":116.590141,"Latitude":40.048746,"CreateDateTime":"2020-03-1207:12","UpdateTimeFlag":"2020-03-1209:32","IsPass":"1","Provider":"雷锋弟弟","PictureUrl":null,"DiscussCount":1},
  {"Id":"246d69bddba5466a91b20bb49371fa4f","CameraType":"拍进京证","District":"顺义区","LocationDescript":"顺平路","RoadName":"顺平路","SupportCount":1,"OpposeCount":3,"Longitude":116.622511,"Latitude":40.117589,"CreateDateTime":"2020-04-1113:46","UpdateTimeFlag":"2020-04-1113:46","IsPass":"1","Provider":"无名","PictureUrl":null,"DiscussCount":4},
  {"Id":"24e1376a1b2e479abb4b0996a6eb43a8","CameraType":"拍进京证","District":"朝阳区","LocationDescript":"农展桥西[由西向东]","RoadName":"农展桥西","SupportCount":2,"OpposeCount":0,"Longitude":116.461614,"Latitude":39.941275,"CreateDateTime":"2020-03-1510:03","UpdateTimeFlag":"2020-03-1510:03","IsPass":"1","Provider":"MuMu","PictureUrl":"1","DiscussCount":0},
  {"Id":"24fd60e9dffa4bf49dd677d43e2dcbd5","CameraType":"拍进京证","District":"大兴区","LocationDescript":"林校北路和兴丰大街交叉口向西东","RoadName":"林校北路","SupportCount":1,"OpposeCount":0,"Longitude":116.338344,"Latitude":39.722393,"CreateDateTime":"2020-03-3020:51","UpdateTimeFlag":"2020-03-3020:51","IsPass":"1","Provider":"少爷","PictureUrl":null,"DiscussCount":0},
  {"Id":"24fedb4cb032405e9245b1900835d681","CameraType":"拍进京证","District":"丰台区","LocationDescript":"方庄桥东过街桥含辅路[内环方向]","RoadName":"方庄桥东过街桥内环含辅路","SupportCount":1,"OpposeCount":0,"Longitude":116.444338,"Latitude":39.858895,"CreateDateTime":"2020-04-0913:10","UpdateTimeFlag":"2020-04-0913:10","IsPass":"1","Provider":"匿名","PictureUrl":"1","DiscussCount":0},
  {"Id":"25a6d7d2878b409f9c8c1212ba899887","CameraType":"拍进京证","District":"通州区","LocationDescript":"双向","RoadName":"化工桥西大鲁店北路双向","SupportCount":1,"OpposeCount":3,"Longitude":116.540473938,"Latitude":39.8476219177,"CreateDateTime":"2020-01-1611:46","UpdateTimeFlag":"2020-01-1611:46","IsPass":"1","Provider":"热心网友","PictureUrl":null,"DiscussCount":1},
  {"Id":"25a9950679974116940142f902c2dcde","CameraType":"拍早晚高峰","District":"朝阳区","LocationDescript":"农展馆桥北外环[南向北]","RoadName":"农展馆桥北外环","SupportCount":1,"OpposeCount":0,"Longitude":116.461799,"Latitude":39.941347,"CreateDateTime":"2020-04-0313:11","UpdateTimeFlag":"2020-04-0313:11","IsPass":"1","Provider":"匿名","PictureUrl":null,"DiscussCount":0},
  {"Id":"25e0d150ecae452fa9eca75da599d41e","CameraType":"进京证","District":"顺义区","LocationDescript":"吴家营南桥[由南向北]","RoadName":"机场东路吴家营桥南","SupportCount":1,"OpposeCount":0,"Longitude":116.630336,"Latitude":40.073482,"CreateDateTime":"2020-02-1621:07","UpdateTimeFlag":"2020-02-1621:07","IsPass":"1","Provider":"热心网友、头条@避免违章","PictureUrl":null,"DiscussCount":0},
  {"Id":"260411da3b994f08b3c8804b5c8e36a6","CameraType":"拍进京证","District":"大兴区","LocationDescript":"宏达南路与康定街交叉口[东西双向][南北双向][此位置数据已合并,去掉重复]","RoadName":"康定街与宏达南路路口","SupportCount":10,"OpposeCount":0,"Longitude":116.532676,"Latitude":39.769818,"CreateDateTime":"2020-03-1413:59","UpdateTimeFlag":"2020-03-1413:59","IsPass":"1","Provider":"jjj","PictureUrl":"1","DiscussCount":0},
  {"Id":"262495e9d067452ab341d4ef2f04b9af","CameraType":"拍进京证","District":"海淀区","LocationDescript":"东西双向","RoadName":"杏石口桥东东西双向","SupportCount":1,"OpposeCount":0,"Longitude":116.221580505,"Latitude":39.9550170898,"CreateDateTime":"2020-01-1611:46","UpdateTimeFlag":"2020-01-1611:46","IsPass":"1","Provider":"热心网友","PictureUrl":null,"DiscussCount":0},
  {"Id":"270126a5fda54e36aa3f6b80083e33cd","CameraType":"拍进京证","District":"大兴区","LocationDescript":"荣华桥北","RoadName":"博大路","SupportCount":2,"OpposeCount":0,"Longitude":116.487621,"Latitude":39.819217,"CreateDateTime":"2020-03-2322:06","UpdateTimeFlag":"2020-03-2322:06","IsPass":"1","Provider":"大鹏","PictureUrl":"1","DiscussCount":0},
  {"Id":"2711030c657c4fd2941461c1381f0bc6","CameraType":"拍进京证","District":"海淀区","LocationDescript":"南向北","RoadName":"温北路温泉桥","SupportCount":1,"OpposeCount":1,"Longitude":116.1653,"Latitude":40.053992,"CreateDateTime":"2020-02-2615:57","UpdateTimeFlag":"2020-02-2615:57","IsPass":"1","Provider":"热心网友","PictureUrl":null,"DiscussCount":9},
  {"Id":"27303e6d7f9f4f2cb49d64e8fe5c2e06","CameraType":"拍进京证","District":"朝阳区","LocationDescript":"三环路和平西桥东[由东向西]","RoadName":"三环路和平西桥东","SupportCount":1,"OpposeCount":0,"Longitude":116.418697,"Latitude":39.969202,"CreateDateTime":"2020-03-2509:33","UpdateTimeFlag":"2020-03-2509:33","IsPass":"1","Provider":"网络蜘蛛","PictureUrl":null,"DiscussCount":0},
  {"Id":"28a4757b48a4431fb5663ded6953f678","CameraType":"拍进京证","District":"顺义区","LocationDescript":"高白路西王路东桥南","RoadName":"高白路","SupportCount":1,"OpposeCount":0,"Longitude":116.497749,"Latitude":40.149231,"CreateDateTime":"2020-03-0113:25","UpdateTimeFlag":"2020-03-0113:25","IsPass":"1","Provider":"雷锋","PictureUrl":null,"DiscussCount":0},
  {"Id":"28a66d16f1d3419e80a466e69521c538","CameraType":"拍进京证","District":"东城区","LocationDescript":"西向东","RoadName":"南门仓胡同东口西向东","SupportCount":1,"OpposeCount":0,"Longitude":116.433914185,"Latitude":39.9295272827,"CreateDateTime":"2020-01-1611:46","UpdateTimeFlag":"2020-01-1611:46","IsPass":"1","Provider":"热心网友","PictureUrl":null,"DiscussCount":0},
  {"Id":"28e04014676148fba952c0a234c9ef71","CameraType":"拍早晚高峰","District":"丰台区","LocationDescript":"南苑路与石榴庄路交口[南向北]","RoadName":"南苑路与石榴庄路交口","SupportCount":1,"OpposeCount":0,"Longitude":116.400635,"Latitude":39.84554,"CreateDateTime":"2020-04-1622:33","UpdateTimeFlag":"2020-04-1712:33","IsPass":"1","Provider":"匿名","PictureUrl":"1","DiscussCount":0},
  {"Id":"28eea124e95048ca878720b316b85c32","CameraType":"拍进京证","District":"昌平区","LocationDescript":"京藏高速3.05km[由北向南]","RoadName":"京藏高速3.05km处","SupportCount":1,"OpposeCount":0,"Longitude":116.373491,"Latitude":39.99702,"CreateDateTime":"2020-03-2513:42","UpdateTimeFlag":"2020-03-2513:42","IsPass":"1","Provider":"雷锋","PictureUrl":null,"DiscussCount":0},
  {"Id":"2993c4127373478fa83e18a308051f2b","CameraType":"拍进京证","District":"丰台区","LocationDescript":"南北双向","RoadName":"赵公口桥北南北双向","SupportCount":1,"OpposeCount":0,"Longitude":116.414077759,"Latitude":39.8589706421,"CreateDateTime":"2020-01-1611:46","UpdateTimeFlag":"2020-01-1611:46","IsPass":"1","Provider":"热心网友","PictureUrl":null,"DiscussCount":0},
  {"Id":"2a047a7094da4bc897ebda1a7e1744bc","CameraType":"拍进京证","District":"石景山区","LocationDescript":"石门路","RoadName":"石门路","SupportCount":1,"OpposeCount":3,"Longitude":116.160947,"Latitude":39.925721,"CreateDateTime":"2020-03-1618:21","UpdateTimeFlag":"2020-03-1618:21","IsPass":"1","Provider":"QQ:188606306","PictureUrl":null,"DiscussCount":6},
  {"Id":"2a8b9c14db4d44e3b3c905f7102c2ca2","CameraType":"拍进京证","District":"大兴区","LocationDescript":"东西双向(航天总医院南门)","RoadName":"万源北路","SupportCount":1,"OpposeCount":0,"Longitude":116.419211,"Latitude":39.802999,"CreateDateTime":"2020-02-2618:58","UpdateTimeFlag":"2020-02-2618:58","IsPass":"1","Provider":"旗木卡卡西","PictureUrl":null,"DiscussCount":0},
  {"Id":"2b5890ee2ee34aa8a83a0aa887fe1fe5","CameraType":"拍进京证","District":"丰台区","LocationDescript":"东西双向","RoadName":"京良路和樊羊路路口东西双向","SupportCount":1,"OpposeCount":0,"Longitude":116.313568115,"Latitude":39.7888908386,"CreateDateTime":"2020-01-1611:46","UpdateTimeFlag":"2020-01-1611:46","IsPass":"1","Provider":"热心网友","PictureUrl":null,"DiscussCount":0},
  {"Id":"2b782d0a4a6a4e8bbe2971fd4da9a30c","CameraType":"拍进京证","District":"顺义区","LocationDescript":"东西双向","RoadName":"顺于路迎晨桥西","SupportCount":1,"OpposeCount":0,"Longitude":116.623106,"Latitude":40.128872,"CreateDateTime":"2020-03-0219:15","UpdateTimeFlag":"2020-03-0219:15","IsPass":"1","Provider":"头条避免违章","PictureUrl":null,"DiscussCount":0},
  {"Id":"2be186857e8448c8962c6e6b4e022f1a","CameraType":"拍进京证","District":"昌平区","LocationDescript":"顺沙路与南百路口北南向北","RoadName":"顺沙路与南百路口北南向北","SupportCount":1,"OpposeCount":0,"Longitude":116.323473,"Latitude":40.170396,"CreateDateTime":"2020-03-2610:34","UpdateTimeFlag":"2020-03-2610:34","IsPass":"1","Provider":"旺","PictureUrl":"1","DiscussCount":0},
  {"Id":"2d43751734b04232b776b096c6280e39","CameraType":"拍进京证","District":"通州区","LocationDescript":"南北双向","RoadName":"通顺路北窑上桥南","SupportCount":1,"OpposeCount":0,"Longitude":116.679191,"Latitude":40.00979,"CreateDateTime":"2020-02-2615:20","UpdateTimeFlag":"2020-02-2615:20","IsPass":"1","Provider":"雷锋","PictureUrl":"1","DiscussCount":2},
  {"Id":"2dc647330eab4306b3f5344f4c159472","CameraType":"拍进京证","District":"西城区","LocationDescript":"灵境胡同西口[西向东]","RoadName":"灵境胡同西口","SupportCount":1,"OpposeCount":0,"Longitude":116.374,"Latitude":39.914749,"CreateDateTime":"2020-04-1909:12","UpdateTimeFlag":"2020-04-1912:12","IsPass":"1","Provider":"匿名","PictureUrl":"1","DiscussCount":0},
  {"Id":"2e028373fc7a4e50a2773b57b090cd30","CameraType":"拍进京证","District":"大兴区","LocationDescript":"兴政街与市场路交口","RoadName":"兴政街与市场路交口","SupportCount":1,"OpposeCount":0,"Longitude":116.342311,"Latitude":39.726508,"CreateDateTime":"2020-04-0310:40","UpdateTimeFlag":"2020-04-0310:40","IsPass":"1","Provider":"沧州人","PictureUrl":"1","DiscussCount":0},
  {"Id":"2e9d7b70c1104f9895efb5d622718eb9","CameraType":"拍进京证","District":"通州区","LocationDescript":"博兴三路西环路交叉口","RoadName":"博兴三路西环路交叉口","SupportCount":1,"OpposeCount":2,"Longitude":116.527573,"Latitude":39.767434,"CreateDateTime":"2020-03-2511:18","UpdateTimeFlag":"2020-03-2511:18","IsPass":"1","Provider":"网络蜘蛛","PictureUrl":null,"DiscussCount":4},
  {"Id":"2f3541ff9a9a441bba6d44243a5a4f00","CameraType":"拍进京证","District":"昌平区","LocationDescript":"政府街与西环路路口东侧[西向东]","RoadName":"政府街与西环路路口东侧","SupportCount":1,"OpposeCount":0,"Longitude":116.227039,"Latitude":40.220217,"CreateDateTime":"2020-02-2120:23","UpdateTimeFlag":"2020-02-2120:23","IsPass":"1","Provider":"管理员","PictureUrl":null,"DiscussCount":0},
  {"Id":"2f5f41ea5ef04f3f83a4e48c973fcf78","CameraType":"拍进京证","District":"海淀区","LocationDescript":"南北双向，已有人反映非高峰期被拍","RoadName":"奥林东路南天桥南北双向","SupportCount":2,"OpposeCount":0,"Longitude":116.40057373,"Latitude":40.0113601685,"CreateDateTime":"2020-01-1611:46","UpdateTimeFlag":"2020-01-1611:46","IsPass":"1","Provider":"热心网友","PictureUrl":null,"DiscussCount":0},
  {"Id":"2f768c9462c7462fae6a8b38a1a217cf","CameraType":"进京证与早晚高峰","District":"朝阳区","LocationDescript":"东西双向","RoadName":"东坝中街与五环路交界处桥洞往西100米","SupportCount":3,"OpposeCount":0,"Longitude":116.526446,"Latitude":39.964053,"CreateDateTime":"2020-02-2611:58","UpdateTimeFlag":"2020-02-2611:58","IsPass":"1","Provider":"匿名","PictureUrl":null,"DiscussCount":0},
  {"Id":"2fdb4de175c049c2b2785789a0211e05","CameraType":"拍进京证","District":"西城区","LocationDescript":"南向北","RoadName":"大观园西门附近南向北","SupportCount":1,"OpposeCount":0,"Longitude":116.354019165,"Latitude":39.8720207214,"CreateDateTime":"2020-01-1611:46","UpdateTimeFlag":"2020-01-1611:46","IsPass":"1","Provider":"热心网友","PictureUrl":null,"DiscussCount":0},
  {"Id":"30295d519c204621b53d4cc363051189","CameraType":"拍进京证","District":"通州区","LocationDescript":"宾河中路小圣庙桥西[东西双向]","RoadName":"宾河中路小圣庙桥西","SupportCount":1,"OpposeCount":0,"Longitude":116.709366,"Latitude":39.887174,"CreateDateTime":"2020-03-0401:27","UpdateTimeFlag":"2020-03-0401:27","IsPass":"1","Provider":"LQBZ、扣分使者","PictureUrl":"1","DiscussCount":5},
  {"Id":"306181ee823f48948b10ea18177240b4","CameraType":"拍进京证","District":"海淀区","LocationDescript":"北清路高里掌北桥[西向东]主辅路全拍","RoadName":"北清路","SupportCount":6,"OpposeCount":1,"Longitude":116.145358,"Latitude":40.068061,"CreateDateTime":"2020-02-2714:26","UpdateTimeFlag":"2020-02-2714:26","IsPass":"1","Provider":"xjlie、79904、网友实测、佳","PictureUrl":"1","DiscussCount":3},
  {"Id":"308f801b716b4a92b2cc6ebb458fb87a","CameraType":"拍进京证","District":"延庆区","LocationDescript":"五中西侧路口至湖南小区北口段","RoadName":"五中西侧路口","SupportCount":1,"OpposeCount":0,"Longitude":115.992806,"Latitude":40.454029,"CreateDateTime":"2020-03-2700:14","UpdateTimeFlag":"2020-03-2700:14","IsPass":"1","Provider":"冬屿","PictureUrl":null,"DiscussCount":0},
  {"Id":"320b36caecff4c4b9a3d104c6e5d255a","CameraType":"拍进京证","District":"朝阳区","LocationDescript":"高碑店污水处理厂门口由西向东","RoadName":"广渠快速路","SupportCount":2,"OpposeCount":0,"Longitude":116.532483,"Latitude":39.892933,"CreateDateTime":"2020-02-2718:27","UpdateTimeFlag":"2020-02-2718:27","IsPass":"1","Provider":"为北京做贡献的外地车","PictureUrl":null,"DiscussCount":10},
  {"Id":"3253adb03b0d423688abd7599af437d6","CameraType":"拍进京证","District":"大兴区","LocationDescript":"兴丰大街与富强路[由北向南]","RoadName":"兴丰大街与富强路","SupportCount":1,"OpposeCount":0,"Longitude":116.339352,"Latitude":39.737682,"CreateDateTime":"2020-04-0120:07","UpdateTimeFlag":"2020-04-0113:07","IsPass":"1","Provider":"匿名","PictureUrl":"1","DiscussCount":1},
  {"Id":"333bd57050084a5bb19eca6e7c1fc50b","CameraType":"拍进京证","District":"海淀区","LocationDescript":"[由南向北]","RoadName":"西五环路杏石口桥北第一过街天桥","SupportCount":1,"OpposeCount":0,"Longitude":116.216566,"Latitude":39.955174,"CreateDateTime":"2020-02-2514:56","UpdateTimeFlag":"2020-02-2514:56","IsPass":"1","Provider":"cpt、llf","PictureUrl":"1","DiscussCount":0},
  {"Id":"3359615c1cf14c9b954ae9e22b8192d8","CameraType":"拍进京证","District":"朝阳区","LocationDescript":"东西双向","RoadName":"燕莎桥西东西双向","SupportCount":1,"OpposeCount":0,"Longitude":116.459709167,"Latitude":39.9489784241,"CreateDateTime":"2020-01-1611:46","UpdateTimeFlag":"2020-01-1611:46","IsPass":"1","Provider":"热心网友","PictureUrl":null,"DiscussCount":0},
  {"Id":"347419dba75c4e23911f8f8454b73fce","CameraType":"拍进京证","District":"丰台区","LocationDescript":"丰葆路富锦家园路口[由南向北]","RoadName":"丰葆路富锦家园路口","SupportCount":1,"OpposeCount":0,"Longitude":116.29056,"Latitude":39.814265,"CreateDateTime":"2020-03-2510:34","UpdateTimeFlag":"2020-03-2510:34","IsPass":"1","Provider":"网络蜘蛛","PictureUrl":null,"DiscussCount":0},
  {"Id":"34a2fc8d94ef4f409d84eee728ab0c3f","CameraType":"拍进京证","District":"海淀区","LocationDescript":"闹市口大街与新文化街路口南向北","RoadName":"闹市口大街","SupportCount":1,"OpposeCount":0,"Longitude":116.363271,"Latitude":39.903946,"CreateDateTime":"2020-04-0817:56","UpdateTimeFlag":"2020-04-0817:56","IsPass":"1","Provider":"白云","PictureUrl":null,"DiscussCount":0},
  {"Id":"34f7c5b27c984d3d8e8f9b0ac0b47c9b","CameraType":"拍进京证","District":"昌平区","LocationDescript":"东向西","RoadName":"府学路与水库路路口东向西","SupportCount":1,"OpposeCount":0,"Longitude":116.261993408,"Latitude":40.2218780518,"CreateDateTime":"2020-01-1611:46","UpdateTimeFlag":"2020-01-1611:46","IsPass":"1","Provider":"热心网友","PictureUrl":"1","DiscussCount":2},
  {"Id":"35c4ba259ae146669f7e47ea55bd33c1","CameraType":"拍早晚高峰","District":"大兴区","LocationDescript":"五环路团河桥[东向西]","RoadName":"五环路团河桥","SupportCount":2,"OpposeCount":0,"Longitude":116.381721,"Latitude":39.758184,"CreateDateTime":"2020-03-0623:13","UpdateTimeFlag":"2020-03-0623:13","IsPass":"1","Provider":"自由大哥","PictureUrl":"1","DiscussCount":5},
  {"Id":"364a387c89074325a01810ba1399d471","CameraType":"拍进京证","District":"昌平区","LocationDescript":"京藏高速主路南向北北向南最近有也被拍,目前双向拍,请看违章截图","RoadName":"西沙桥下","SupportCount":1,"OpposeCount":0,"Longitude":116.245422,"Latitude":40.165154,"CreateDateTime":"2020-03-1708:43","UpdateTimeFlag":"2020-03-1708:43","IsPass":"1","Provider":"Alan","PictureUrl":"1","DiscussCount":3},
  {"Id":"367c59a5c5174bc2b78c386a41fbe813","CameraType":"拍进京证","District":"昌平区","LocationDescript":"西向东","RoadName":"政府街与西环路路口西向东","SupportCount":2,"OpposeCount":0,"Longitude":116.226997375,"Latitude":40.2202529907,"CreateDateTime":"2020-01-1611:46","UpdateTimeFlag":"2020-01-1611:46","IsPass":"1","Provider":"热心网友","PictureUrl":null,"DiscussCount":0},
  {"Id":"36c1ddf985ca4b6eb439f70be6ee8310","CameraType":"拍早晚高峰","District":"朝阳区","LocationDescript":"大屯路林萃路南口东[西向东]","RoadName":"大屯路","SupportCount":1,"OpposeCount":0,"Longitude":116.376073,"Latitude":40.001746,"CreateDateTime":"2020-02-2912:13","UpdateTimeFlag":"2020-02-2912:13","IsPass":"1","Provider":"匿名","PictureUrl":null,"DiscussCount":0},
  {"Id":"3729579f8a5c4f89bbbf84957f4183f7","CameraType":"拍进京证","District":"海淀区","LocationDescript":"红山桥下黑山扈路北向南（进京）","RoadName":"红山桥下黑山扈路北向南（进京）","SupportCount":1,"OpposeCount":0,"Longitude":116.270278931,"Latitude":40.0069274902,"CreateDateTime":"2020-01-1611:46","UpdateTimeFlag":"2020-01-1611:46","IsPass":"1","Provider":"热心网友","PictureUrl":null,"DiscussCount":1},
  {"Id":"375834b3e1a8497c946f38c02103cdcc","CameraType":"拍进京证","District":"大兴区","LocationDescript":"康庄路[由东向西","RoadName":"康庄路","SupportCount":1,"OpposeCount":0,"Longitude":116.325521,"Latitude":39.757266,"CreateDateTime":"2020-03-2509:22","UpdateTimeFlag":"2020-03-2509:22","IsPass":"1","Provider":"网络蜘蛛","PictureUrl":null,"DiscussCount":1},
  {"Id":"37b456079ad64e5b910c06ac01c4c0b9","CameraType":"拍进京证","District":"朝阳区","LocationDescript":"光华中街与广和东三路交叉口[西向东]","RoadName":"光华中街与广和东三路交叉口","SupportCount":1,"OpposeCount":0,"Longitude":116.45837,"Latitude":39.897304,"CreateDateTime":"2020-03-2510:19","UpdateTimeFlag":"2020-03-2510:19","IsPass":"1","Provider":"匿名","PictureUrl":null,"DiscussCount":0},
  {"Id":"3839cbf1e6a74848a314c2fe102f530b","CameraType":"拍进京证","District":"延庆区","LocationDescript":"小营桥北","RoadName":"师范路","SupportCount":1,"OpposeCount":0,"Longitude":115.988012,"Latitude":40.46333,"CreateDateTime":"2020-02-2614:34","UpdateTimeFlag":"2020-02-2614:34","IsPass":"1","Provider":"FunnyX","PictureUrl":null,"DiscussCount":0},
  {"Id":"387dcb25ed934129a2e8bd2cc6909d7f","CameraType":"拍进京证","District":"丰台区","LocationDescript":"北向南","RoadName":"京港澳高速大瓦窑桥下","SupportCount":1,"OpposeCount":0,"Longitude":116.239001,"Latitude":39.857297,"CreateDateTime":"2020-02-2708:47","UpdateTimeFlag":"2020-02-2708:47","IsPass":"1","Provider":"吕歌","PictureUrl":null,"DiscussCount":0},
  {"Id":"38d2b6bed0cb41c38c6ac218581c7de2","CameraType":"拍进京证","District":"通州区","LocationDescript":"马驹桥2号桥北(北向南)","RoadName":"西周路","SupportCount":4,"OpposeCount":0,"Longitude":116.556736,"Latitude":39.747193,"CreateDateTime":"2020-02-1123:43","UpdateTimeFlag":"2020-02-1123:43","IsPass":"1","Provider":"cpt","PictureUrl":"1","DiscussCount":0},
  {"Id":"3945d2dec8044a18ae6e9012ee7fa4c2","CameraType":"拍进京证","District":"怀柔区","LocationDescript":"青春路大地休闲港湾路口[由南北向]","RoadName":"青春路大地休闲港湾路口","SupportCount":1,"OpposeCount":0,"Longitude":116.630477,"Latitude":40.333235,"CreateDateTime":"2020-03-2510:42","UpdateTimeFlag":"2020-03-2510:42","IsPass":"1","Provider":"雷锋","PictureUrl":null,"DiscussCount":0},
  {"Id":"395ad07ea98c455fbd07669e034c8186","CameraType":"拍进京证","District":"丰台区","LocationDescript":"南向北(高峰期)","RoadName":"丰台大桥北内环南向北（高峰期）","SupportCount":1,"OpposeCount":0,"Longitude":116.283554077,"Latitude":39.8488426208,"CreateDateTime":"2020-01-1611:46","UpdateTimeFlag":"2020-01-1611:46","IsPass":"1","Provider":"热心网友","PictureUrl":null,"DiscussCount":0},
  {"Id":"39e8f01e785a436d97d6be74aff595e1","CameraType":"拍进京证","District":"东城区","LocationDescript":"西向东","RoadName":"前门西大街西向东","SupportCount":1,"OpposeCount":0,"Longitude":116.390296936,"Latitude":39.9002990723,"CreateDateTime":"2020-01-1611:46","UpdateTimeFlag":"2020-01-1611:46","IsPass":"1","Provider":"热心网友","PictureUrl":null,"DiscussCount":0},
  {"Id":"3a939917aa8242588f6315ab79b9c2b5","CameraType":"拍进京证","District":"延庆区","LocationDescript":"香苑街自来水公司路口至劳动局东口段","RoadName":"香苑街","SupportCount":1,"OpposeCount":0,"Longitude":115.99677,"Latitude":40.467523,"CreateDateTime":"2020-03-2700:27","UpdateTimeFlag":"2020-03-2700:27","IsPass":"1","Provider":"冬屿","PictureUrl":null,"DiscussCount":0},
  {"Id":"3aea7d38e6374cafa9351aacaff3d52a","CameraType":"拍进京证","District":"房山区","LocationDescript":"京良路桥底，西向东","RoadName":"昊天大街与京良路路口","SupportCount":1,"OpposeCount":0,"Longitude":116.170417,"Latitude":39.771331,"CreateDateTime":"2020-03-1123:19","UpdateTimeFlag":"2020-03-1123:19","IsPass":"1","Provider":"受伤者","PictureUrl":null,"DiscussCount":3},
  {"Id":"3aecf3cad1614ba58c14df584c898a4c","CameraType":"拍进京证","District":"大兴区","LocationDescript":"同济南路与康定街交叉口","RoadName":"同济南路","SupportCount":1,"OpposeCount":4,"Longitude":116.540603,"Latitude":39.773649,"CreateDateTime":"2020-03-0311:08","UpdateTimeFlag":"2020-03-0311:08","IsPass":"1","Provider":"LQP","PictureUrl":null,"DiscussCount":9},
  {"Id":"3b2a326fa03a4b4e8e6a165ed80621c2","CameraType":"拍进京证","District":"通州区","LocationDescript":"东向西","RoadName":"徐尹路徐辛庄桥西","SupportCount":3,"OpposeCount":0,"Longitude":116.709529,"Latitude":39.987136,"CreateDateTime":"2020-02-2615:13","UpdateTimeFlag":"2020-02-2615:13","IsPass":"1","Provider":"热心网友","PictureUrl":null,"DiscussCount":0},
  {"Id":"3b3cbdd889b843568a05abab02cfcd0e","CameraType":"拍进京证","District":"海淀区","LocationDescript":"东西双向","RoadName":"新兴桥东天桥东西双向","SupportCount":1,"OpposeCount":0,"Longitude":116.314468384,"Latitude":39.9075241089,"CreateDateTime":"2020-01-1611:46","UpdateTimeFlag":"2020-01-1611:46","IsPass":"1","Provider":"热心网友","PictureUrl":null,"DiscussCount":0},
  {"Id":"3b8008322eeb47a794aa28a718de501e","CameraType":"拍进京证","District":"丰台区","LocationDescript":"木樨园桥东过街桥内环主路[东向西]","RoadName":"南三环木樨园桥东过街桥","SupportCount":1,"OpposeCount":0,"Longitude":116.404219,"Latitude":39.857128,"CreateDateTime":"2020-04-0722:20","UpdateTimeFlag":"2020-04-0722:20","IsPass":"1","Provider":"QUN","PictureUrl":"1","DiscussCount":0},
  {"Id":"3bc787f68140466d97c31bc500e0d866","CameraType":"拍进京证","District":"丰台区","LocationDescript":"冰雪嘉年华十字路口，南北拍，东西方向未知","RoadName":"南宫滨河路","SupportCount":1,"OpposeCount":3,"Longitude":116.144115,"Latitude":39.800759,"CreateDateTime":"2020-03-2722:30","UpdateTimeFlag":"2020-03-2722:30","IsPass":"1","Provider":"见义勇为","PictureUrl":null,"DiscussCount":4},
  {"Id":"3c344cbd32a04ec49cec133e170f5294","CameraType":"拍进京证","District":"通州区","LocationDescript":"双方向","RoadName":"京通快速四惠东双方向","SupportCount":2,"OpposeCount":0,"Longitude":116.5154953,"Latitude":39.9078483582,"CreateDateTime":"2020-01-1611:46","UpdateTimeFlag":"2020-01-1611:46","IsPass":"1","Provider":"热心网友","PictureUrl":null,"DiscussCount":1},
  {"Id":"3c9984bfca9f4a9ebc95446853e8a9c1","CameraType":"拍进京证","District":"昌平区","LocationDescript":"府学路东向西","RoadName":"府学路东向西","SupportCount":1,"OpposeCount":0,"Longitude":116.257416,"Latitude":40.221543,"CreateDateTime":"2020-04-0817:40","UpdateTimeFlag":"2020-04-0817:40","IsPass":"1","Provider":"happy","PictureUrl":null,"DiscussCount":0},
  {"Id":"3c9dcd7c38bc40ec8b320408a5e94a4d","CameraType":"拍进京证","District":"大兴区","LocationDescript":"兴华桥下(违章截图存在:注意此位置2020年3月27日开始重新拍大家小心)[南向北]","RoadName":"兴华桥下","SupportCount":1,"OpposeCount":1,"Longitude":116.330116272,"Latitude":39.7794151306,"CreateDateTime":"2020-01-1611:46","UpdateTimeFlag":"2020-01-1611:46","IsPass":"5","Provider":"热心网友","PictureUrl":"1","DiscussCount":3},
  {"Id":"3d5ce522422d49199ebfeb19a29b5ad6","CameraType":"拍进京证","District":"顺义区","LocationDescript":"京平高速管头桥西，东向西","RoadName":"京平高速","SupportCount":1,"OpposeCount":0,"Longitude":116.608683,"Latitude":40.028925,"CreateDateTime":"2020-02-2617:12","UpdateTimeFlag":"2020-02-2617:12","IsPass":"1","Provider":"曼巴","PictureUrl":"1","DiscussCount":0},
  {"Id":"3dbf7a98a39f421ca32dc08e051b1163","CameraType":"拍进京证","District":"丰台区","LocationDescript":"南北向主辅路","RoadName":"京石高速南北向主辅路","SupportCount":1,"OpposeCount":0,"Longitude":116.238555908,"Latitude":39.8552513123,"CreateDateTime":"2020-01-1611:46","UpdateTimeFlag":"2020-01-1611:46","IsPass":"1","Provider":"热心网友","PictureUrl":null,"DiscussCount":1},
  {"Id":"3df4769f43ae425a96b34d13fb71e720","CameraType":"拍进京证","District":"朝阳区","LocationDescript":"潘家园桥[外环主路]","RoadName":"潘家园桥外环主路","SupportCount":1,"OpposeCount":0,"Longitude":116.461163,"Latitude":39.876137,"CreateDateTime":"2020-04-0722:13","UpdateTimeFlag":"2020-04-0722:13","IsPass":"1","Provider":"QUN","PictureUrl":"1","DiscussCount":1},
  {"Id":"3e8f1d79639d4283b171d63e867ed163","CameraType":"拍进京证","District":"西城区","LocationDescript":"东西双向南向北","RoadName":"西单路口东西双向南向北","SupportCount":1,"OpposeCount":0,"Longitude":116.373886108,"Latitude":39.9072570801,"CreateDateTime":"2020-01-1611:46","UpdateTimeFlag":"2020-01-1611:46","IsPass":"1","Provider":"热心网友","PictureUrl":null,"DiscussCount":0},
  {"Id":"3ecdf9ade8e54f0d9acf32850448eb51","CameraType":"拍进京证","District":"东城区","LocationDescript":"东西双向","RoadName":"广渠门桥西东西双向","SupportCount":1,"OpposeCount":0,"Longitude":116.443992615,"Latitude":39.8935661316,"CreateDateTime":"2020-01-1611:46","UpdateTimeFlag":"2020-01-1611:46","IsPass":"1","Provider":"热心网友","PictureUrl":null,"DiscussCount":2},
  {"Id":"3ecefe03b1fc4a0491bfc93516bab369","CameraType":"拍进京证","District":"石景山区","LocationDescript":"五环路衙门口桥南天桥[外环]","RoadName":"五环路衙门口桥南天桥","SupportCount":3,"OpposeCount":0,"Longitude":116.211291,"Latitude":39.89199,"CreateDateTime":"2020-03-0612:27","UpdateTimeFlag":"2020-03-0612:27","IsPass":"1","Provider":"热心网友","PictureUrl":null,"DiscussCount":0},
  {"Id":"3ffa7c9b109a4001a93bb6ed7b6fe7bc","CameraType":"拍进京证","District":"昌平区","LocationDescript":"西向东","RoadName":"南环东路与龙水路十字路口西","SupportCount":1,"OpposeCount":0,"Longitude":116.258377075,"Latitude":40.2133140564,"CreateDateTime":"2020-01-1611:46","UpdateTimeFlag":"2020-01-1611:46","IsPass":"1","Provider":"热心网友","PictureUrl":null,"DiscussCount":0},
  {"Id":"404fc4666c5e4113b4064215750d164c","CameraType":"拍进京证","District":"西城区","LocationDescript":"天宁寺桥下[东西双向]","RoadName":"天宁寺桥下","SupportCount":1,"OpposeCount":0,"Longitude":116.34903,"Latitude":39.898069,"CreateDateTime":"2020-03-2513:41","UpdateTimeFlag":"2020-03-2513:41","IsPass":"1","Provider":"网络蜘蛛","PictureUrl":null,"DiscussCount":0},
  {"Id":"4078df35bbe54e22ae0c47c473acf16a","CameraType":"拍进京证","District":"丰台区","LocationDescript":"菜户营桥大观园牌楼[北向南]","RoadName":"菜户营桥大观园牌楼","SupportCount":1,"OpposeCount":0,"Longitude":116.354198,"Latitude":39.869761,"CreateDateTime":"2020-04-1908:30","UpdateTimeFlag":"2020-04-1912:10","IsPass":"1","Provider":"匿名","PictureUrl":"1","DiscussCount":0},
  {"Id":"40865db3ec2f4e23b2c697929e543c77","CameraType":"拍进京证","District":"朝阳区","LocationDescript":"进出京双向","RoadName":"京沪大羊坊桥西进出京双向","SupportCount":3,"OpposeCount":0,"Longitude":116.502189636,"Latitude":39.8215675354,"CreateDateTime":"2020-01-1611:46","UpdateTimeFlag":"2020-01-1611:46","IsPass":"1","Provider":"热心网友","PictureUrl":"1","DiscussCount":0},
  {"Id":"40a27e7e9cc14a0b8d4bee998747c284","CameraType":"拍进京证","District":"海淀区","LocationDescript":"沙阳路东贯市东路口西[东向西](辅路)","RoadName":"沙阳路东贯市东路","SupportCount":1,"OpposeCount":0,"Longitude":116.165828,"Latitude":40.128936,"CreateDateTime":"2020-03-1916:54","UpdateTimeFlag":"2020-03-1916:54","IsPass":"1","Provider":"灵魂","PictureUrl":"1","DiscussCount":0},
  {"Id":"40f4121062df41128a412f0c8c23ccda","CameraType":"拍进京证","District":"通州区","LocationDescript":"南向北","RoadName":"京沪高速马驹桥北","SupportCount":1,"OpposeCount":0,"Longitude":116.57004,"Latitude":39.751365,"CreateDateTime":"2020-02-1800:22","UpdateTimeFlag":"2020-02-1800:22","IsPass":"1","Provider":"头条@避免违章","PictureUrl":null,"DiscussCount":0},
  {"Id":"420e4060759045b8aa1da1bf630421e2","CameraType":"拍进京证","District":"朝阳区","LocationDescript":"双向","RoadName":"机场高速三元桥南天桥双向","SupportCount":1,"OpposeCount":0,"Longitude":116.449996948,"Latitude":39.953792572,"CreateDateTime":"2020-01-1611:46","UpdateTimeFlag":"2020-01-1611:46","IsPass":"1","Provider":"热心网友","PictureUrl":null,"DiscussCount":0},
  {"Id":"425bf6c58b584e2fb637a79fb9cea6a8","CameraType":"拍进京证","District":"通州区","LocationDescript":"运河东大街杨坨桥西","RoadName":"运河东大街","SupportCount":1,"OpposeCount":0,"Longitude":116.712113,"Latitude":39.902603,"CreateDateTime":"2020-03-1509:59","UpdateTimeFlag":"2020-03-1509:59","IsPass":"1","Provider":"匿名","PictureUrl":null,"DiscussCount":0},
  {"Id":"4279cb97dc1243049b23c4e775982450","CameraType":"拍进京证","District":"海淀区","LocationDescript":"五景桥[由南向北]外环方向","RoadName":"西五环","SupportCount":3,"OpposeCount":0,"Longitude":116.211497,"Latitude":39.916764,"CreateDateTime":"2020-03-2311:58","UpdateTimeFlag":"2020-03-2311:58","IsPass":"1","Provider":"doudouding、彤彤吃不饱","PictureUrl":null,"DiscussCount":0},
  {"Id":"4285796c66c64056bf7e2bff137cd113","CameraType":"拍进京证","District":"通州区","LocationDescript":"六号桥","RoadName":"马驹桥","SupportCount":1,"OpposeCount":0,"Longitude":116.582237,"Latitude":39.756453,"CreateDateTime":"2020-02-2809:44","UpdateTimeFlag":"2020-02-2809:44","IsPass":"1","Provider":"雷锋","PictureUrl":null,"DiscussCount":3},
  {"Id":"434d23d9cc614805ae1fa4d606f705e4","CameraType":"拍进京证","District":"延庆区","LocationDescript":"康安小区东南门[双向拍]","RoadName":"康安小区东南门","SupportCount":1,"OpposeCount":0,"Longitude":115.970046,"Latitude":40.455128,"CreateDateTime":"2020-03-2510:36","UpdateTimeFlag":"2020-03-2510:36","IsPass":"1","Provider":"雷锋","PictureUrl":null,"DiscussCount":0},
  {"Id":"43de73ebafa745a0865f31fd1136cfbe","CameraType":"拍进京证","District":"大兴区","LocationDescript":"五环路大羊坊西外环","RoadName":"五环路","SupportCount":2,"OpposeCount":0,"Longitude":116.499698,"Latitude":39.81772,"CreateDateTime":"2020-02-2716:23","UpdateTimeFlag":"2020-02-2716:23","IsPass":"1","Provider":"雷锋","PictureUrl":null,"DiscussCount":0},
  {"Id":"44d8f71886374836bf77963ff85a8385","CameraType":"拍进京证","District":"顺义区","LocationDescript":"北窑上桥南北方向南","RoadName":"通顺路","SupportCount":1,"OpposeCount":0,"Longitude":116.679382,"Latitude":40.011695,"CreateDateTime":"2020-04-1715:05","UpdateTimeFlag":"2020-04-1715:05","IsPass":"1","Provider":"匿名","PictureUrl":null,"DiscussCount":0},
  {"Id":"44e93af6f59f488ea1b44cf6e6bc4f61","CameraType":"拍早晚高峰","District":"丰台区","LocationDescript":"西向东","RoadName":"梅市口路","SupportCount":2,"OpposeCount":0,"Longitude":116.218789,"Latitude":39.866814,"CreateDateTime":"2020-03-0413:16","UpdateTimeFlag":"2020-03-0413:16","IsPass":"1","Provider":"心灵鸡汤","PictureUrl":null,"DiscussCount":1},
  {"Id":"454a76392ed94fbda43eb25421caf359","CameraType":"拍进京证","District":"朝阳区","LocationDescript":"五元桥南进京","RoadName":"机场高速","SupportCount":1,"OpposeCount":0,"Longitude":116.495201,"Latitude":39.994458,"CreateDateTime":"2020-02-2510:33","UpdateTimeFlag":"2020-02-2510:33","IsPass":"1","Provider":"热心网友","PictureUrl":null,"DiscussCount":2},
  {"Id":"45e03fe859794c8782cc28ed8fdc8740","CameraType":"拍进京证","District":"昌平区","LocationDescript":"南向北","RoadName":"南环路与鼓楼南街路口南向北","SupportCount":1,"OpposeCount":0,"Longitude":116.233711243,"Latitude":40.2127914429,"CreateDateTime":"2020-01-1611:46","UpdateTimeFlag":"2020-01-1611:46","IsPass":"1","Provider":"热心网友","PictureUrl":null,"DiscussCount":0},
  {"Id":"460c663a0e874f919f735f9358ddc6c8","CameraType":"拍进京证","District":"西城区","LocationDescript":"北向南","RoadName":"积水潭桥南北向南","SupportCount":1,"OpposeCount":0,"Longitude":116.3722229,"Latitude":39.9478416443,"CreateDateTime":"2020-01-1611:46","UpdateTimeFlag":"2020-01-1611:46","IsPass":"1","Provider":"热心网友","PictureUrl":null,"DiscussCount":0},
  {"Id":"46268946ad2b480ab9fb5d5a2a25614e","CameraType":"拍进京证","District":"通州区","LocationDescript":"西向东","RoadName":"运河东大街杨驼桥西","SupportCount":2,"OpposeCount":0,"Longitude":116.711818,"Latitude":39.902556,"CreateDateTime":"2020-02-2210:24","UpdateTimeFlag":"2020-02-2210:24","IsPass":"1","Provider":"雷锋","PictureUrl":null,"DiscussCount":1},
  {"Id":"4636a2a3b7934bc68a1bbc7aa29133e1","CameraType":"拍早晚高峰","District":"丰台区","LocationDescript":"进京方向西红门收费站北天桥","RoadName":"西红门收费站北","SupportCount":1,"OpposeCount":0,"Longitude":116.347758,"Latitude":39.797751,"CreateDateTime":"2020-04-0916:14","UpdateTimeFlag":"2020-04-0916:14","IsPass":"1","Provider":"樊新运","PictureUrl":null,"DiscussCount":0},
  {"Id":"46eb907731dc45808285c5aa72e35475","CameraType":"拍早晚高峰","District":"大兴区","LocationDescript":"南五环敬贤桥[外环方向]","RoadName":"南五环敬贤桥","SupportCount":2,"OpposeCount":0,"Longitude":116.374973,"Latitude":39.765505,"CreateDateTime":"2020-03-2509:28","UpdateTimeFlag":"2020-03-2509:28","IsPass":"1","Provider":"网络蜘蛛","PictureUrl":null,"DiscussCount":0},
  {"Id":"47100bd230cb4e51ae7e52025e795802","CameraType":"拍进京证","District":"海淀区","LocationDescript":"说明","RoadName":"旱河路香泉环岛南双向","SupportCount":1,"OpposeCount":0,"Longitude":116.223487854,"Latitude":39.9903411865,"CreateDateTime":"2020-01-1611:46","UpdateTimeFlag":"2020-01-1611:46","IsPass":"1","Provider":"热心网友","PictureUrl":null,"DiscussCount":0},
  {"Id":"474d01a8cca347e8b572e0201311f498","CameraType":"拍进京证","District":"通州区","LocationDescript":"漷马路马驹桥1号桥北[由北向南]","RoadName":"漷马路","SupportCount":4,"OpposeCount":1,"Longitude":116.545532,"Latitude":39.74815,"CreateDateTime":"2020-02-1123:44","UpdateTimeFlag":"2020-02-1123:44","IsPass":"1","Provider":"cpt","PictureUrl":"1","DiscussCount":6},
  {"Id":"4764c9a2f69442d7b38fba4d5c0d290c","CameraType":"拍进京证","District":"朝阳区","LocationDescript":"说明","RoadName":"三元桥南天桥南北双向","SupportCount":1,"OpposeCount":0,"Longitude":116.450202942,"Latitude":39.9556808472,"CreateDateTime":"2020-01-1611:46","UpdateTimeFlag":"2020-01-1611:46","IsPass":"1","Provider":"热心网友","PictureUrl":null,"DiscussCount":0},
  {"Id":"47f5452b544e45939043612b5d8f79b0","CameraType":"拍进京证","District":"丰台区","LocationDescript":"刘家窑桥东过街桥[内环主路]","RoadName":"南三环刘家窑桥东过街桥","SupportCount":2,"OpposeCount":0,"Longitude":116.421372,"Latitude":39.857465,"CreateDateTime":"2020-04-0722:40","UpdateTimeFlag":"2020-04-0722:40","IsPass":"1","Provider":"QUN","PictureUrl":"1","DiscussCount":0},
  {"Id":"4844acec237e48aeaa40711fb68a5f2e","CameraType":"拍进京证","District":"顺义区","LocationDescript":"龙苏路桥西西向东","RoadName":"龙塘路","SupportCount":1,"OpposeCount":0,"Longitude":116.649968,"Latitude":40.05958,"CreateDateTime":"2020-02-2613:18","UpdateTimeFlag":"2020-02-2613:18","IsPass":"1","Provider":"雷锋","PictureUrl":null,"DiscussCount":0},
  {"Id":"48cf0ae129024d81ad5e525e6d67737a","CameraType":"拍进京证","District":"昌平区","LocationDescript":"南向北","RoadName":"昌平南环东路与燕平路路口北南向北","SupportCount":2,"OpposeCount":0,"Longitude":116.244651794,"Latitude":40.2131729126,"CreateDateTime":"2020-01-1611:46","UpdateTimeFlag":"2020-01-1611:46","IsPass":"1","Provider":"热心网友","PictureUrl":"1","DiscussCount":0},
  {"Id":"49287c8b85f5455d96e72c2a8f918a9e","CameraType":"拍进京证","District":"大兴区","LocationDescript":"刘村桥路口","RoadName":"黄马路","SupportCount":1,"OpposeCount":0,"Longitude":116.378378,"Latitude":39.721922,"CreateDateTime":"2020-02-2515:04","UpdateTimeFlag":"2020-02-2515:04","IsPass":"1","Provider":"烬","PictureUrl":null,"DiscussCount":0},
  {"Id":"493a83b177f540d3bccc69fdfdd18dac","CameraType":"拍进京证","District":"昌平区","LocationDescript":"西沙桥北向南","RoadName":"京藏高速进京方向","SupportCount":1,"OpposeCount":1,"Longitude":116.242741,"Latitude":40.163561,"CreateDateTime":"2020-02-2319:12","UpdateTimeFlag":"2020-02-2319:12","IsPass":"1","Provider":"星","PictureUrl":null,"DiscussCount":0},
  {"Id":"4a106646ce944c56a26b0bbbd7fa0aa6","CameraType":"拍进京证","District":"大兴区","LocationDescript":"兴旺路与清源路路口[由南向北]","RoadName":"兴旺路与清源路路口","SupportCount":1,"OpposeCount":0,"Longitude":116.31308,"Latitude":39.743493,"CreateDateTime":"2020-03-2509:31","UpdateTimeFlag":"2020-03-2509:31","IsPass":"1","Provider":"网络蜘蛛","PictureUrl":null,"DiscussCount":0},
  {"Id":"4a15a489fac645439c28e0467f14c5e3","CameraType":"拍进京证","District":"大兴区","LocationDescript":"黄村西大街与兴丰大街交口[东向西]","RoadName":"黄村西大街与兴丰大街交口","SupportCount":1,"OpposeCount":0,"Longitude":116.339552,"Latitude":39.731847,"CreateDateTime":"2020-03-0415:25","UpdateTimeFlag":"2020-03-0415:25","IsPass":"1","Provider":"自由大哥","PictureUrl":"1","DiscussCount":0},
  {"Id":"4a7b96f261c241f08c4d2b43f4b0c4e2","CameraType":"拍进京证","District":"朝阳区","LocationDescript":"南北双向，北向南过地铁站小区门口进辅路不拍，","RoadName":"林萃桥南南北双向（北向南过地铁站小区门口进辅路不拍）","SupportCount":1,"OpposeCount":0,"Longitude":116.37437439,"Latitude":40.0215454102,"CreateDateTime":"2020-01-1611:46","UpdateTimeFlag":"2020-01-1611:46","IsPass":"1","Provider":"热心网友","PictureUrl":null,"DiscussCount":2},
  {"Id":"4bfe0f19e62a44d8a051b1b45aa2937c","CameraType":"拍进京证","District":"丰台区","LocationDescript":"木樨园桥北百荣世贸商城前[南向北]","RoadName":"木樨园桥北百荣世贸商城前","SupportCount":1,"OpposeCount":0,"Longitude":116.400114,"Latitude":39.860906,"CreateDateTime":"2020-04-1020:46","UpdateTimeFlag":"2020-04-1020:46","IsPass":"1","Provider":"匿名","PictureUrl":"1","DiscussCount":0},
  {"Id":"4c61a15958e04287906505ad00fda86e","CameraType":"拍进京证","District":"朝阳区","LocationDescript":"成寿寺成仪路东口北[由北向南]","RoadName":"成寿寺成仪路东口北","SupportCount":1,"OpposeCount":0,"Longitude":116.446422,"Latitude":39.846332,"CreateDateTime":"2020-03-2511:37","UpdateTimeFlag":"2020-03-2511:37","IsPass":"1","Provider":"热心网友","PictureUrl":null,"DiscussCount":0},
  {"Id":"4c6fce47dbe54197acffc7139a11403a","CameraType":"拍进京证","District":"朝阳区","LocationDescript":"东向西","RoadName":"双井桥西天桥","SupportCount":2,"OpposeCount":0,"Longitude":116.458241,"Latitude":39.893613,"CreateDateTime":"2020-02-2117:15","UpdateTimeFlag":"2020-02-2117:15","IsPass":"1","Provider":"雷锋","PictureUrl":null,"DiscussCount":0},
  {"Id":"4d3e42617cbd4682bb6c1963f9f4c30c","CameraType":"拍进京证","District":"大兴区","LocationDescript":"五环路李营桥[内外环双向]","RoadName":"五环路李营桥外环","SupportCount":2,"OpposeCount":0,"Longitude":116.318199,"Latitude":39.780733,"CreateDateTime":"2020-02-2810:30","UpdateTimeFlag":"2020-02-2810:30","IsPass":"1","Provider":"老司机、LLD","PictureUrl":"1","DiscussCount":1},
  {"Id":"4e07849f45ee41d2a63783f1318956f4","CameraType":"拍进京证","District":"延庆区","LocationDescript":"高塔路与温泉西里西门至北关北口[方向未知]","RoadName":"高塔路与温泉西里西门至北关北口","SupportCount":1,"OpposeCount":0,"Longitude":115.96986,"Latitude":40.465584,"CreateDateTime":"2020-03-2510:13","UpdateTimeFlag":"2020-03-2510:13","IsPass":"1","Provider":"热心网友","PictureUrl":null,"DiscussCount":0},
  {"Id":"4e5a71c5342c4d82a6abbfa83518ace2","CameraType":"拍早晚高峰","District":"丰台区","LocationDescript":"花乡桥南，樊羊路北向南","RoadName":"南四环花乡桥","SupportCount":1,"OpposeCount":0,"Longitude":116.313115,"Latitude":39.830691,"CreateDateTime":"2020-02-1921:49","UpdateTimeFlag":"2020-02-1921:49","IsPass":"1","Provider":"匿名","PictureUrl":null,"DiscussCount":0},
  {"Id":"4ee9c0915a96476ea7305d1673f23831","CameraType":"拍进京证","District":"延庆区","LocationDescript":"庆园街地税路口东西向东外侧车道","RoadName":"庆园街地税路口东","SupportCount":1,"OpposeCount":0,"Longitude":115.993559,"Latitude":40.474125,"CreateDateTime":"2020-03-1314:02","UpdateTimeFlag":"2020-03-1314:02","IsPass":"1","Provider":"网络蜘蛛","PictureUrl":null,"DiscussCount":0},
  {"Id":"4ef99283495b45e0813b86beba84d526","CameraType":"进京证与早晚高峰","District":"朝阳区","LocationDescript":"双向都拍","RoadName":"将台东路过环铁桥","SupportCount":1,"OpposeCount":0,"Longitude":116.530037,"Latitude":39.976109,"CreateDateTime":"2020-01-1917:45","UpdateTimeFlag":"2020-01-1917:45","IsPass":"1","Provider":"雷锋","PictureUrl":null,"DiscussCount":0},
  {"Id":"4fa5a35644bc4dc8b3ecb561677e1310","CameraType":"拍进京证","District":"朝阳区","LocationDescript":"白家庄路第八十一中学门口[由西向东]","RoadName":"白家庄路","SupportCount":3,"OpposeCount":0,"Longitude":116.45776,"Latitude":39.928403,"CreateDateTime":"2020-03-1314:04","UpdateTimeFlag":"2020-03-1314:04","IsPass":"1","Provider":"网络蜘蛛","PictureUrl":null,"DiscussCount":0},
  {"Id":"4ff1670f1bf04f9b89553fd1de1f6f8f","CameraType":"拍早晚高峰","District":"丰台区","LocationDescript":"京开马家楼桥下[出京方向]","RoadName":"京开马家楼桥下","SupportCount":1,"OpposeCount":0,"Longitude":116.345774,"Latitude":39.83094,"CreateDateTime":"2020-04-0313:14","UpdateTimeFlag":"2020-04-0313:14","IsPass":"1","Provider":"网络蜘蛛","PictureUrl":null,"DiscussCount":0},
  {"Id":"51f1d32464094614a18875f13e3ab44d","CameraType":"拍进京证","District":"丰台区","LocationDescript":"北向南","RoadName":"丰北桥北外环由北向南","SupportCount":1,"OpposeCount":0,"Longitude":116.282188416,"Latitude":39.8681259155,"CreateDateTime":"2020-01-1611:46","UpdateTimeFlag":"2020-01-1611:46","IsPass":"1","Provider":"热心网友","PictureUrl":null,"DiscussCount":0},
  {"Id":"524868da6ca04eb5a1d4b69d570e5777","CameraType":"拍早晚高峰","District":"大兴区","LocationDescript":"兴华大街与北兴路交叉口南向北方向","RoadName":"兴华大街","SupportCount":1,"OpposeCount":1,"Longitude":116.330566,"Latitude":39.776612,"CreateDateTime":"2020-03-0415:54","UpdateTimeFlag":"2020-03-0415:54","IsPass":"1","Provider":"雷锋","PictureUrl":null,"DiscussCount":0},
  {"Id":"5298b6b6be574308927e533f040da2d3","CameraType":"拍进京证","District":"海淀区","LocationDescript":"提供者未提供方向但标识的位置是：由北向南方向,这个位置第一次有人标记，大家注意观察","RoadName":"荷清路","SupportCount":1,"OpposeCount":2,"Longitude":116.337133,"Latitude":40.00067,"CreateDateTime":"2020-03-1218:05","UpdateTimeFlag":"2020-03-1218:05","IsPass":"1","Provider":"雷锋","PictureUrl":null,"DiscussCount":5},
  {"Id":"530b0523a23d4918b13d1ae7f5f15302","CameraType":"拍进京证","District":"丰台区","LocationDescript":"三环内,方庄东路","RoadName":"方庄东路","SupportCount":1,"OpposeCount":0,"Longitude":116.445204,"Latitude":39.859637,"CreateDateTime":"2020-03-2511:03","UpdateTimeFlag":"2020-03-2511:03","IsPass":"1","Provider":"自由使者","PictureUrl":null,"DiscussCount":0},
  {"Id":"537657c286bb4a6aa34935367d4a7b8a","CameraType":"拍进京证","District":"朝阳区","LocationDescript":"五环内环方向北苑桥西向东[由西向东]","RoadName":"五环路北苑桥东","SupportCount":4,"OpposeCount":0,"Longitude":116.415505,"Latitude":40.022222,"CreateDateTime":"2020-02-2608:42","UpdateTimeFlag":"2020-02-2608:42","IsPass":"1","Provider":"赵大、lt","PictureUrl":"1","DiscussCount":0},
  {"Id":"53df33d8a260453ba9150bd0bf1cbb6a","CameraType":"拍早晚高峰","District":"大兴区","LocationDescript":"兴华大街与清源路南向北","RoadName":"兴华大街","SupportCount":1,"OpposeCount":0,"Longitude":116.332475,"Latitude":39.742416,"CreateDateTime":"2020-03-2011:21","UpdateTimeFlag":"2020-03-2011:21","IsPass":"1","Provider":"匿名","PictureUrl":null,"DiscussCount":0},
  {"Id":"53f8441ca9cf41868f399c167729ee57","CameraType":"拍进京证","District":"昌平区","LocationDescript":"南北双向，辅路不拍","RoadName":"二拨子桥下南北双向，辅路不拍","SupportCount":6,"OpposeCount":0,"Longitude":116.302940369,"Latitude":40.0887680054,"CreateDateTime":"2020-01-1611:46","UpdateTimeFlag":"2020-01-1611:46","IsPass":"1","Provider":"热心网友、符号","PictureUrl":"1","DiscussCount":4},
  {"Id":"5472c8ba13e14364b1eba0b9550ce8a2","CameraType":"拍进京证","District":"朝阳区","LocationDescript":"机场高速五元桥进京方向","RoadName":"机场高速","SupportCount":1,"OpposeCount":0,"Longitude":116.49991,"Latitude":39.998965,"CreateDateTime":"2020-04-0219:39","UpdateTimeFlag":"2020-04-0219:39","IsPass":"1","Provider":"外地人","PictureUrl":null,"DiscussCount":0},
  {"Id":"54d72a4188fa4610b82c4e8ec6f2f976","CameraType":"拍进京证","District":"石景山区","LocationDescript":"东西双向","RoadName":"鲁谷南路新华社门口东西双向","SupportCount":1,"OpposeCount":0,"Longitude":116.212806702,"Latitude":39.9005241394,"CreateDateTime":"2020-01-1611:46","UpdateTimeFlag":"2020-01-1611:46","IsPass":"1","Provider":"热心网友","PictureUrl":null,"DiscussCount":0},
  {"Id":"54d841d609804cde896c1236c2f48f01","CameraType":"拍进京证","District":"朝阳区","LocationDescript":"外环南向北","RoadName":"四环主路窑洼湖桥北外环南向北","SupportCount":1,"OpposeCount":0,"Longitude":116.489776611,"Latitude":39.8871498108,"CreateDateTime":"2020-01-1611:46","UpdateTimeFlag":"2020-01-1611:46","IsPass":"1","Provider":"热心网友","PictureUrl":null,"DiscussCount":0},
  {"Id":"5516a5ff374b4ea8bb76244e696baaac","CameraType":"拍进京证","District":"通州区","LocationDescript":"张采路张家湾北桥北[南向北]群友:广元对此位置进行了精确校对","RoadName":"张采路张家湾北桥北","SupportCount":1,"OpposeCount":0,"Longitude":116.697475,"Latitude":39.863153,"CreateDateTime":"2020-02-2617:48","UpdateTimeFlag":"2020-02-2617:48","IsPass":"1","Provider":"头条@避免违章、鱼","PictureUrl":"1","DiscussCount":0},
  {"Id":"558dd62ec4104f43818f8103cd10bfd1","CameraType":"拍进京证","District":"怀柔区","LocationDescript":"北向南","RoadName":"青春路环岛南北向南","SupportCount":1,"OpposeCount":0,"Longitude":116.6304245,"Latitude":40.3343009949,"CreateDateTime":"2020-01-1611:46","UpdateTimeFlag":"2020-01-1611:46","IsPass":"1","Provider":"热心网友","PictureUrl":null,"DiscussCount":1},
  {"Id":"5614f6721b5746d0b8ec200790861f5b","CameraType":"拍进京证","District":"朝阳区","LocationDescript":"东西双向","RoadName":"远通桥西天桥东西双向","SupportCount":2,"OpposeCount":0,"Longitude":116.538391113,"Latitude":39.9093742371,"CreateDateTime":"2020-01-1611:46","UpdateTimeFlag":"2020-01-1611:46","IsPass":"1","Provider":"热心网友","PictureUrl":"1","DiscussCount":3},
  {"Id":"5696e38cea1f44fe9ace307b19cbb8de","CameraType":"拍进京证","District":"顺义区","LocationDescript":"六元桥南向北","RoadName":"六环路","SupportCount":1,"OpposeCount":1,"Longitude":116.597796,"Latitude":40.143158,"CreateDateTime":"2020-02-1914:03","UpdateTimeFlag":"2020-02-1914:03","IsPass":"1","Provider":"热心网友","PictureUrl":null,"DiscussCount":1},
  {"Id":"572b2a4a49b44d57a5789c1bb77c053d","CameraType":"拍进京证","District":"东城区","LocationDescript":"东单路口[南向北]","RoadName":"东单路口","SupportCount":1,"OpposeCount":0,"Longitude":116.418525,"Latitude":39.908155,"CreateDateTime":"2020-03-0623:02","UpdateTimeFlag":"2020-03-0623:02","IsPass":"1","Provider":"自由大哥","PictureUrl":"1","DiscussCount":1},
  {"Id":"573c380cc65d4160a851aa558de9677c","CameraType":"拍进京证","District":"丰台区","LocationDescript":"丰仪北路东口北[由北向南]","RoadName":"丰仪北路东口北","SupportCount":1,"OpposeCount":0,"Longitude":116.226396,"Latitude":39.879131,"CreateDateTime":"2020-03-2014:58","UpdateTimeFlag":"2020-03-2014:58","IsPass":"1","Provider":"头条@避免违章","PictureUrl":null,"DiscussCount":1},
  {"Id":"57b5482189674914a9175059e56d3067","CameraType":"拍进京证","District":"丰台区","LocationDescript":"宛平桥[南向北外环方向][数据重复已合并]","RoadName":"五环路","SupportCount":2,"OpposeCount":0,"Longitude":116.225066,"Latitude":39.84524,"CreateDateTime":"2020-04-0116:50","UpdateTimeFlag":"2020-04-0116:50","IsPass":"1","Provider":"雷、leo","PictureUrl":"1","DiscussCount":2},
  {"Id":"58f5149234d249049a2f1192feecf86a","CameraType":"拍进京证","District":"朝阳区","LocationDescript":"双向","RoadName":"三元西桥南老国展门前双向","SupportCount":1,"OpposeCount":0,"Longitude":116.444450378,"Latitude":39.9606323242,"CreateDateTime":"2020-01-1611:46","UpdateTimeFlag":"2020-01-1611:46","IsPass":"1","Provider":"热心网友","PictureUrl":null,"DiscussCount":0},
  {"Id":"5a5d526f68c94a589c4f88faf42e6684","CameraType":"拍进京证","District":"通州区","LocationDescript":"四支路马驹桥6号桥北[由南向北]","RoadName":"四支路马驹桥6号桥北","SupportCount":1,"OpposeCount":0,"Longitude":116.58186,"Latitude":39.756943,"CreateDateTime":"2020-03-2511:10","UpdateTimeFlag":"2020-03-2511:10","IsPass":"1","Provider":"网络蜘蛛","PictureUrl":"1","DiscussCount":0},
  {"Id":"5a6562ba51ee4891be1e50addc183170","CameraType":"进京证与早晚高峰","District":"大兴区","LocationDescript":"北往南左转","RoadName":"南中轴路与中鼎路口","SupportCount":1,"OpposeCount":0,"Longitude":116.405334,"Latitude":39.733764,"CreateDateTime":"2020-02-2507:36","UpdateTimeFlag":"2020-02-2507:36","IsPass":"1","Provider":"雷锋","PictureUrl":null,"DiscussCount":0},
  {"Id":"5a778f9ea46342668eb9c89309fe1e0d","CameraType":"拍进京证","District":"丰台区","LocationDescript":"欣宁街兴华桥下[由南向北]","RoadName":"欣宁街兴华桥下","SupportCount":1,"OpposeCount":1,"Longitude":116.329996,"Latitude":39.779904,"CreateDateTime":"2020-03-2511:27","UpdateTimeFlag":"2020-03-2511:27","IsPass":"1","Provider":"雷锋","PictureUrl":null,"DiscussCount":1},
  {"Id":"5aeb324d394f419f92990889cf7ef4e0","CameraType":"拍进京证","District":"石景山区","LocationDescript":"鲁谷西路与石景山路交叉口[由北向南]","RoadName":"鲁谷西路","SupportCount":1,"OpposeCount":0,"Longitude":116.2267,"Latitude":39.907295,"CreateDateTime":"2020-03-2509:24","UpdateTimeFlag":"2020-03-2509:24","IsPass":"1","Provider":"网络蜘蛛","PictureUrl":null,"DiscussCount":1},
  {"Id":"5b6dbe3b48da4b769cdbb336bb491d9f","CameraType":"拍进京证","District":"海淀区","LocationDescript":"东向西","RoadName":"翠湖北路中国纪检学院","SupportCount":1,"OpposeCount":0,"Longitude":116.167477,"Latitude":40.107294,"CreateDateTime":"2020-03-1818:23","UpdateTimeFlag":"2020-03-1818:23","IsPass":"1","Provider":"头条@避免违章","PictureUrl":null,"DiscussCount":1},
  {"Id":"5b93532414ba4e22819d7292cd56facf","CameraType":"拍进京证","District":"丰台区","LocationDescript":"刘家窑桥西天桥","RoadName":"南三环内环主路","SupportCount":1,"OpposeCount":0,"Longitude":116.417271,"Latitude":39.857158,"CreateDateTime":"2020-03-2414:16","UpdateTimeFlag":"2020-03-2414:16","IsPass":"1","Provider":"匿名","PictureUrl":null,"DiscussCount":0},
  {"Id":"5b999a8120b24241bdb547595df02ff7","CameraType":"拍进京证","District":"延庆区","LocationDescript":"教堂十字路口","RoadName":"湖北东路东口","SupportCount":1,"OpposeCount":0,"Longitude":116.002016,"Latitude":40.460108,"CreateDateTime":"2020-03-2615:56","UpdateTimeFlag":"2020-03-2615:56","IsPass":"1","Provider":"热心网友","PictureUrl":null,"DiscussCount":0},
  {"Id":"5ba673a74c82439eb7b9b8ac48c50d94","CameraType":"拍进京证","District":"顺义区","LocationDescript":"龙塘路龙苏路桥西(东向西)","RoadName":"龙塘路","SupportCount":1,"OpposeCount":0,"Longitude":116.650284,"Latitude":40.05974,"CreateDateTime":"2020-02-1621:09","UpdateTimeFlag":"2020-02-1621:09","IsPass":"1","Provider":"热心网友","PictureUrl":null,"DiscussCount":1},
  {"Id":"5bc8505872ce4bb9b61a262946179cb6","CameraType":"拍进京证","District":"房山区","LocationDescript":"西向东","RoadName":"大件路六环紫草坞桥东","SupportCount":1,"OpposeCount":0,"Longitude":116.096176,"Latitude":39.72768,"CreateDateTime":"2020-03-0512:52","UpdateTimeFlag":"2020-03-0512:52","IsPass":"1","Provider":"LGS","PictureUrl":null,"DiscussCount":6},
  {"Id":"5c288e6f62d64a75a45a4bc3d3e9661f","CameraType":"拍进京证","District":"丰台区","LocationDescript":"南北双向","RoadName":"洋桥北南北双向（最内侧车道不拍）","SupportCount":1,"OpposeCount":0,"Longitude":116.38684845,"Latitude":39.8596153259,"CreateDateTime":"2020-01-1611:46","UpdateTimeFlag":"2020-01-1611:46","IsPass":"1","Provider":"热心网友","PictureUrl":null,"DiscussCount":0},
  {"Id":"5c34bf65f1f64f35a4c4020918049ef7","CameraType":"拍进京证","District":"通州区","LocationDescript":"黄马路马驹桥1号桥西[东向西]","RoadName":"黄马路马驹桥1号桥西","SupportCount":1,"OpposeCount":0,"Longitude":116.544843,"Latitude":39.746576,"CreateDateTime":"2020-04-0615:42","UpdateTimeFlag":"2020-04-0615:42","IsPass":"1","Provider":"QUN","PictureUrl":"1","DiscussCount":0},
  {"Id":"5c68103bf91c4fb39d57cfbb0c3a27b9","CameraType":"拍进京证","District":"海淀区","LocationDescript":"南北双向","RoadName":"奥林西桥南南北双向","SupportCount":5,"OpposeCount":0,"Longitude":116.384017944,"Latitude":40.0206451416,"CreateDateTime":"2020-01-1611:46","UpdateTimeFlag":"2020-01-1611:46","IsPass":"1","Provider":"热心网友","PictureUrl":null,"DiscussCount":1},
  {"Id":"5ce593fa65094e38966ae24ec328b63a","CameraType":"拍进京证","District":"通州区","LocationDescript":"京通快速双桥东天桥[东西双向]","RoadName":"京通快速双桥东天桥","SupportCount":3,"OpposeCount":0,"Longitude":116.576823,"Latitude":39.910326,"CreateDateTime":"2020-03-2015:14","UpdateTimeFlag":"2020-03-2015:14","IsPass":"1","Provider":"小星星","PictureUrl":"1","DiscussCount":3},
  {"Id":"5e459807c6074e9486bca068d9c5c36a","CameraType":"拍进京证","District":"大兴区","LocationDescript":"兴良路与天贵大街路口西向东","RoadName":"兴良路","SupportCount":1,"OpposeCount":0,"Longitude":116.307067,"Latitude":39.698702,"CreateDateTime":"2020-02-1612:44","UpdateTimeFlag":"2020-02-1612:44","IsPass":"1","Provider":"雷锋","PictureUrl":null,"DiscussCount":3},
  {"Id":"5e71816a71ff45c48d6cc71bfe751dec","CameraType":"拍进京证","District":"丰台区","LocationDescript":"马家堡东路三星庄园路口[双向]","RoadName":"马家堡东路三星庄园路口","SupportCount":1,"OpposeCount":0,"Longitude":116.386909,"Latitude":39.83517,"CreateDateTime":"2020-03-2511:43","UpdateTimeFlag":"2020-03-2511:43","IsPass":"1","Provider":"网络蜘蛛","PictureUrl":null,"DiscussCount":0},
  {"Id":"5efe23882b68484b9fa6600cccb05fd7","CameraType":"拍进京证","District":"海淀区","LocationDescript":"羊坊店路北口南向北","RoadName":"羊坊店路北口","SupportCount":1,"OpposeCount":0,"Longitude":116.321298,"Latitude":39.9073,"CreateDateTime":"2020-04-0313:09","UpdateTimeFlag":"2020-04-0313:09","IsPass":"1","Provider":"匿名","PictureUrl":null,"DiscussCount":0},
  {"Id":"5f00cb6cef2145c9b3b1e2682c6e3b1b","CameraType":"拍进京证","District":"朝阳区","LocationDescript":"五方桥[主辅路双向]","RoadName":"京哈高速","SupportCount":1,"OpposeCount":0,"Longitude":116.548682,"Latitude":39.869033,"CreateDateTime":"2020-02-1818:43","UpdateTimeFlag":"2020-02-1818:43","IsPass":"1","Provider":"热心网友","PictureUrl":"1","DiscussCount":1},
  {"Id":"5f0f164976a24b9a9c3f2bcfd42e2d49","CameraType":"拍进京证","District":"朝阳区","LocationDescript":"京通快速华贸过街天桥","RoadName":"京通快速华贸过街天桥","SupportCount":1,"OpposeCount":1,"Longitude":116.48183,"Latitude":39.908226,"CreateDateTime":"2020-03-2510:41","UpdateTimeFlag":"2020-03-2510:41","IsPass":"1","Provider":"匿名者","PictureUrl":null,"DiscussCount":0},
  {"Id":"60593e36278c48929798066bcc3eb85e","CameraType":"拍进京证","District":"房山区","LocationDescript":"房山梨园桥北北向南","RoadName":"京港澳高速","SupportCount":1,"OpposeCount":0,"Longitude":116.10436,"Latitude":39.699842,"CreateDateTime":"2020-02-2609:21","UpdateTimeFlag":"2020-02-2609:21","IsPass":"1","Provider":"匿名","PictureUrl":"1","DiscussCount":2},
  {"Id":"61a27bfa987e4c0cace90192c5bcfaa4","CameraType":"拍进京证","District":"丰台区","LocationDescript":"洋桥西过街天桥外环主路","RoadName":"南三环外环主路","SupportCount":2,"OpposeCount":0,"Longitude":116.382456,"Latitude":39.85703,"CreateDateTime":"2020-03-2414:12","UpdateTimeFlag":"2020-03-2414:12","IsPass":"1","Provider":"匿名","PictureUrl":null,"DiscussCount":0},
  {"Id":"61ad3be8f5304296a223d01a8627ee00","CameraType":"拍早晚高峰","District":"丰台区","LocationDescript":"自东向西","RoadName":"葆台路","SupportCount":1,"OpposeCount":1,"Longitude":116.28966,"Latitude":39.806702,"CreateDateTime":"2020-03-0415:31","UpdateTimeFlag":"2020-03-0415:31","IsPass":"1","Provider":"丰台常客","PictureUrl":null,"DiscussCount":0},
  {"Id":"62068ea2cf8f463ea549bb908712d621","CameraType":"拍进京证","District":"丰台区","LocationDescript":"南向北","RoadName":"方庄桥北，南向北","SupportCount":1,"OpposeCount":0,"Longitude":116.438529968,"Latitude":39.8621520996,"CreateDateTime":"2020-01-1611:46","UpdateTimeFlag":"2020-01-1611:46","IsPass":"1","Provider":"热心网友","PictureUrl":null,"DiscussCount":0},
  {"Id":"62624874543643ed80671eb296f4a6db","CameraType":"拍进京证","District":"通州区","LocationDescript":"六环出马驹桥出口处[由南向北]","RoadName":"六环出马驹桥出口处","SupportCount":3,"OpposeCount":0,"Longitude":116.577644,"Latitude":39.755409,"CreateDateTime":"2020-03-2510:00","UpdateTimeFlag":"2020-03-2510:00","IsPass":"1","Provider":"网络蜘蛛","PictureUrl":null,"DiscussCount":0},
  {"Id":"629a8e7271594e7d90ed354d28ddee40","CameraType":"拍进京证","District":"丰台区","LocationDescript":"泉湖东路刘太庄南路口东向西","RoadName":"泉湖东路刘太庄南路口","SupportCount":1,"OpposeCount":0,"Longitude":116.12366,"Latitude":39.793217,"CreateDateTime":"2020-02-2709:42","UpdateTimeFlag":"2020-02-2709:42","IsPass":"1","Provider":"雷锋","PictureUrl":null,"DiscussCount":1},
  {"Id":"62a32ba2810b455b94c1b68e1bbeb99e","CameraType":"拍进京证","District":"丰台区","LocationDescript":"大红门东桥[内环方向]","RoadName":"大红门东桥","SupportCount":1,"OpposeCount":0,"Longitude":116.411743,"Latitude":39.832279,"CreateDateTime":"2020-03-2511:40","UpdateTimeFlag":"2020-03-2511:40","IsPass":"1","Provider":"网络蜘蛛","PictureUrl":null,"DiscussCount":0},
  {"Id":"62c35dce51454effa7852b55309ea18e","CameraType":"拍进京证","District":"东城区","LocationDescript":"东西双向","RoadName":"民安街东直门中学门口东西双向","SupportCount":1,"OpposeCount":0,"Longitude":116.432243347,"Latitude":39.9446144104,"CreateDateTime":"2020-01-1611:46","UpdateTimeFlag":"2020-01-1611:46","IsPass":"1","Provider":"热心网友","PictureUrl":null,"DiscussCount":0},
  {"Id":"6325ae2eed7d49418a1bfacb30b07513","CameraType":"拍进京证","District":"大兴区","LocationDescript":"双向，辅路不拍","RoadName":"京开双源桥北天桥（可以走辅路）","SupportCount":2,"OpposeCount":1,"Longitude":116.332580566,"Latitude":39.7052116394,"CreateDateTime":"2020-01-1611:46","UpdateTimeFlag":"2020-01-1611:46","IsPass":"1","Provider":"热心网友","PictureUrl":null,"DiscussCount":0},
  {"Id":"63b30672beb240fa9ba2f59a272e1259","CameraType":"拍进京证","District":"大兴区","LocationDescript":"东向西小心此处已经有多人违章,有详尽的违章截图","RoadName":"北京航天总医院门前人行灯","SupportCount":1,"OpposeCount":0,"Longitude":116.419812,"Latitude":39.803058,"CreateDateTime":"2020-02-2618:54","UpdateTimeFlag":"2020-02-2618:54","IsPass":"1","Provider":"旗木卡卡西","PictureUrl":"1","DiscussCount":2},
  {"Id":"63f1d28275aa4bb9bdeee32353650691","CameraType":"拍进京证","District":"顺义区","LocationDescript":"南北双向","RoadName":"火寺路张喜庄桥南","SupportCount":1,"OpposeCount":0,"Longitude":116.552792,"Latitude":40.144662,"CreateDateTime":"2020-03-0218:57","UpdateTimeFlag":"2020-03-0218:57","IsPass":"1","Provider":"头条避免违章","PictureUrl":null,"DiscussCount":0},
  {"Id":"63f67f0dca0b40acbcae0c66aceaa7a3","CameraType":"拍进京证","District":"大兴区","LocationDescript":"大羊坊桥西外环","RoadName":"五环路","SupportCount":2,"OpposeCount":0,"Longitude":116.502142,"Latitude":39.81877,"CreateDateTime":"2020-03-1719:39","UpdateTimeFlag":"2020-03-1719:39","IsPass":"1","Provider":"郭思雨","PictureUrl":"1","DiscussCount":2},
  {"Id":"640d525131354637a2faff6951bdfa07","CameraType":"拍进京证","District":"丰台区","LocationDescript":"光辉桥东[由东向西]","RoadName":"光辉桥东","SupportCount":1,"OpposeCount":0,"Longitude":116.417923,"Latitude":39.968877,"CreateDateTime":"2020-04-0412:30","UpdateTimeFlag":"2020-04-0514:30","IsPass":"1","Provider":"匿名","PictureUrl":"1","DiscussCount":0},
  {"Id":"64bee9d460804ec682d191aa66522bfa","CameraType":"拍进京证","District":"大兴区","LocationDescript":"德茂桥西[双向拍摄]","RoadName":"德茂桥西双向","SupportCount":1,"OpposeCount":2,"Longitude":116.422279358,"Latitude":39.786151886,"CreateDateTime":"2020-01-1611:46","UpdateTimeFlag":"2020-01-1611:46","IsPass":"1","Provider":"热心网友","PictureUrl":null,"DiscussCount":1},
  {"Id":"652be7ca34bf474b8b835fa7eb8f9f02","CameraType":"拍进京证","District":"延庆区","LocationDescript":"夏都大桥北[南北双向]","RoadName":"夏都大桥北","SupportCount":2,"OpposeCount":0,"Longitude":115.979955,"Latitude":40.454564,"CreateDateTime":"2020-03-2510:37","UpdateTimeFlag":"2020-03-2510:37","IsPass":"1","Provider":"头条@避免违章、网络蜘蛛","PictureUrl":null,"DiscussCount":0},
  {"Id":"652d8e899a0640909c9ed0b51e58039f","CameraType":"拍进京证","District":"昌平区","LocationDescript":"南环路/鼓楼南街路口北侧[南向北]","RoadName":"南环路与鼓楼南街路口北侧","SupportCount":1,"OpposeCount":0,"Longitude":116.233876,"Latitude":40.212762,"CreateDateTime":"2020-02-2120:25","UpdateTimeFlag":"2020-02-2120:25","IsPass":"1","Provider":"管理员","PictureUrl":null,"DiscussCount":0},
  {"Id":"6537467f6ccb46418bbfdbf5c62475f2","CameraType":"拍早晚高峰","District":"朝阳区","LocationDescript":"出京方向(上京承高速方向)","RoadName":"北四环望和桥","SupportCount":1,"OpposeCount":0,"Longitude":116.442741,"Latitude":39.987402,"CreateDateTime":"2020-01-2921:46","UpdateTimeFlag":"2020-01-2921:46","IsPass":"1","Provider":"管理员","PictureUrl":null,"DiscussCount":0},
  {"Id":"66e7d5283c9d4ad19a4af8d455212fe7","CameraType":"拍进京证","District":"大兴区","LocationDescript":"金星西路与兴旺路，西向东","RoadName":"金星西路与兴旺路","SupportCount":1,"OpposeCount":0,"Longitude":116.309291,"Latitude":39.763228,"CreateDateTime":"2020-03-1016:41","UpdateTimeFlag":"2020-03-1016:41","IsPass":"1","Provider":"实测","PictureUrl":null,"DiscussCount":0},
  {"Id":"66fc20fb4f2d40b3a4d478ad9dc24f55","CameraType":"拍进京证","District":"丰台区","LocationDescript":"北向南","RoadName":"开阳桥北天桥北向南","SupportCount":1,"OpposeCount":0,"Longitude":116.374382019,"Latitude":39.8736991882,"CreateDateTime":"2020-01-1611:46","UpdateTimeFlag":"2020-01-1611:46","IsPass":"1","Provider":"热心网友","PictureUrl":null,"DiscussCount":0},
  {"Id":"671114a759b845a2943d9f5b372ec43c","CameraType":"拍进京证","District":"朝阳区","LocationDescript":"西向东","RoadName":"百子湾路与黄木厂路交叉口","SupportCount":1,"OpposeCount":0,"Longitude":116.467251,"Latitude":39.900662,"CreateDateTime":"2020-04-1414:50","UpdateTimeFlag":"2020-04-1414:50","IsPass":"1","Provider":"口丿香糖","PictureUrl":null,"DiscussCount":0},
  {"Id":"673a62c14636449aacdf6531679a4554","CameraType":"拍进京证","District":"顺义区","LocationDescript":"管头桥西由西向东","RoadName":"机场第二高速和京平高速交接处","SupportCount":1,"OpposeCount":0,"Longitude":116.608383,"Latitude":40.028884,"CreateDateTime":"2020-02-2211:31","UpdateTimeFlag":"2020-02-2211:31","IsPass":"1","Provider":"雷锋","PictureUrl":"1","DiscussCount":2},
  {"Id":"67a0a2adc8c3415185c7cdf78dd440f2","CameraType":"拍进京证","District":"朝阳区","LocationDescript":"广渠路高碑店污水处理厂门口[东西双向]","RoadName":"广渠路高碑店污水处理厂门口","SupportCount":1,"OpposeCount":0,"Longitude":116.531662,"Latitude":39.892923,"CreateDateTime":"2020-03-2511:38","UpdateTimeFlag":"2020-03-2511:38","IsPass":"1","Provider":"网络蜘蛛","PictureUrl":"1","DiscussCount":0},
  {"Id":"67c1932b29df480e9d84e26c1d5c45f1","CameraType":"拍进京证","District":"丰台区","LocationDescript":"大红门桥[内环方向]","RoadName":"大红门桥","SupportCount":1,"OpposeCount":0,"Longitude":116.397925,"Latitude":39.832152,"CreateDateTime":"2020-03-2513:48","UpdateTimeFlag":"2020-03-2513:48","IsPass":"1","Provider":"雷锋","PictureUrl":null,"DiscussCount":0},
  {"Id":"67ded73d48b14ecaacbe01a6136feded","CameraType":"拍进京证","District":"丰台区","LocationDescript":"北重南门红绿灯[东西双向]","RoadName":"吴家村路北重南门","SupportCount":2,"OpposeCount":1,"Longitude":116.239055,"Latitude":39.88957,"CreateDateTime":"2020-02-0422:16","UpdateTimeFlag":"2020-02-0422:16","IsPass":"1","Provider":"忆-乡路","PictureUrl":null,"DiscussCount":0},
  {"Id":"6831b48af5c64d1daf96146d39eb06a2","CameraType":"拍进京证","District":"东城区","LocationDescript":"陶然桥外环主路外侧","RoadName":"陶然桥外环主路外侧","SupportCount":1,"OpposeCount":0,"Longitude":116.387682,"Latitude":39.871141,"CreateDateTime":"2020-04-0215:11","UpdateTimeFlag":"2020-04-0215:11","IsPass":"1","Provider":"黑A","PictureUrl":"1","DiscussCount":0},
  {"Id":"6868fda1d289428592c51343a9e11ef1","CameraType":"拍进京证","District":"顺义区","LocationDescript":"北向南","RoadName":"焦路东杜兰桥南","SupportCount":1,"OpposeCount":0,"Longitude":116.608319,"Latitude":40.142545,"CreateDateTime":"2020-03-0219:33","UpdateTimeFlag":"2020-03-0219:33","IsPass":"1","Provider":"头条避免违章","PictureUrl":null,"DiscussCount":0},
  {"Id":"689155c5d78b41368cc8f178aac51f90","CameraType":"拍进京证","District":"通州区","LocationDescript":"进出京双向","RoadName":"台湖收费站进出京双向","SupportCount":1,"OpposeCount":3,"Longitude":116.598762512,"Latitude":39.8175239563,"CreateDateTime":"2020-01-1611:46","UpdateTimeFlag":"2020-01-1611:46","IsPass":"1","Provider":"热心网友","PictureUrl":null,"DiscussCount":6},
  {"Id":"68d804507161457687b418b51bfff23d","CameraType":"拍进京证","District":"海淀区","LocationDescript":"南北双向","RoadName":"四通桥南天桥南北双向","SupportCount":1,"OpposeCount":0,"Longitude":116.322761536,"Latitude":39.960899353,"CreateDateTime":"2020-01-1611:46","UpdateTimeFlag":"2020-01-1611:46","IsPass":"1","Provider":"热心网友","PictureUrl":null,"DiscussCount":0},
  {"Id":"68e0f52e3e514e2dbb2eae26822b4d08","CameraType":"拍进京证","District":"西城区","LocationDescript":"桦皮厂胡同[由南向北]","RoadName":"桦皮厂胡同","SupportCount":1,"OpposeCount":0,"Longitude":116.359058,"Latitude":39.942952,"CreateDateTime":"2020-03-2513:40","UpdateTimeFlag":"2020-03-2513:40","IsPass":"1","Provider":"雷锋","PictureUrl":null,"DiscussCount":0},
  {"Id":"697516c83b5646a48aee597221e9d475","CameraType":"拍进京证","District":"丰台区","LocationDescript":"南向北","RoadName":"丰科路北口南向北","SupportCount":1,"OpposeCount":0,"Longitude":116.297264099,"Latitude":39.8277587891,"CreateDateTime":"2020-01-1611:46","UpdateTimeFlag":"2020-01-1611:46","IsPass":"1","Provider":"热心网友","PictureUrl":null,"DiscussCount":1},
  {"Id":"69b6be928d334bd8abb7e2d9d66e1709","CameraType":"拍进京证","District":"怀柔区","LocationDescript":"西向东","RoadName":"怀柔南大街与龙山东路交汇西向东","SupportCount":1,"OpposeCount":0,"Longitude":116.625823975,"Latitude":40.3101615906,"CreateDateTime":"2020-01-1611:46","UpdateTimeFlag":"2020-01-1611:46","IsPass":"1","Provider":"热心网友","PictureUrl":null,"DiscussCount":0},
  {"Id":"69d64b7b034445aea0b5178f1caccc68","CameraType":"拍进京证","District":"海淀区","LocationDescript":"香山路红山桥下[东西双向]","RoadName":"香山路红山桥下","SupportCount":3,"OpposeCount":0,"Longitude":116.269691467,"Latitude":40.0055046082,"CreateDateTime":"2020-01-1611:46","UpdateTimeFlag":"2020-01-1611:46","IsPass":"1","Provider":"热心网友","PictureUrl":"1","DiscussCount":0},
  {"Id":"69fe8e6086e249049e097b7c00fe5cc7","CameraType":"拍进京证","District":"朝阳区","LocationDescript":"五环路大羊坊桥西内环方向","RoadName":"五环路","SupportCount":1,"OpposeCount":0,"Longitude":116.499481,"Latitude":39.817792,"CreateDateTime":"2020-02-2512:58","UpdateTimeFlag":"2020-02-2512:58","IsPass":"1","Provider":"雷锋","PictureUrl":null,"DiscussCount":0},
  {"Id":"6a04630c06174b4d8576e0c47f83647a","CameraType":"拍进京证","District":"朝阳区","LocationDescript":"五元桥南内环","RoadName":"五环路","SupportCount":1,"OpposeCount":0,"Longitude":116.499954,"Latitude":39.999019,"CreateDateTime":"2020-03-0216:07","UpdateTimeFlag":"2020-03-0216:07","IsPass":"1","Provider":"匿名","PictureUrl":null,"DiscussCount":0},
  {"Id":"6aacbf44b64843faa4e9f4a0e0afb9e2","CameraType":"拍进京证","District":"昌平区","LocationDescript":"南北双向，位于在圆明园西路上","RoadName":"肖家河桥南圆明园西路双向","SupportCount":1,"OpposeCount":0,"Longitude":116.287239075,"Latitude":40.0120887756,"CreateDateTime":"2020-01-1611:46","UpdateTimeFlag":"2020-01-1611:46","IsPass":"1","Provider":"热心网友","PictureUrl":"1","DiscussCount":0},
  {"Id":"6af6bd5d19c0406f8f8c0802cc9deedd","CameraType":"拍进京证","District":"朝阳区","LocationDescript":"东西双向","RoadName":"潘家园桥西东西双向","SupportCount":2,"OpposeCount":0,"Longitude":116.459594727,"Latitude":39.8762626648,"CreateDateTime":"2020-01-1611:46","UpdateTimeFlag":"2020-01-1611:46","IsPass":"1","Provider":"热心网友","PictureUrl":"1","DiscussCount":1},
  {"Id":"6c39d9ee44b94ffba5bb69c7ed552b77","CameraType":"拍进京证","District":"东城区","LocationDescript":"东西双向","RoadName":"东便门桥西天桥东西双向","SupportCount":1,"OpposeCount":0,"Longitude":116.430679321,"Latitude":39.9006996155,"CreateDateTime":"2020-01-1611:46","UpdateTimeFlag":"2020-01-1611:46","IsPass":"1","Provider":"热心网友","PictureUrl":null,"DiscussCount":0},
  {"Id":"6c7b7795279848369a6df8c1ad943286","CameraType":"拍进京证","District":"朝阳区","LocationDescript":"[由南向北]备注:[提供者:老虎反馈修改为五环主路]","RoadName":"五环主路","SupportCount":1,"OpposeCount":0,"Longitude":116.543252,"Latitude":39.92331,"CreateDateTime":"2020-02-2716:01","UpdateTimeFlag":"2020-02-2716:01","IsPass":"1","Provider":"李老虎","PictureUrl":null,"DiscussCount":2},
  {"Id":"6c8864bc46fc4353bb62aeada29cc6c5","CameraType":"拍进京证","District":"石景山区","LocationDescript":"东西双向","RoadName":"晋元桥东天桥东西双向","SupportCount":2,"OpposeCount":0,"Longitude":116.219314575,"Latitude":39.9247283936,"CreateDateTime":"2020-01-1611:46","UpdateTimeFlag":"2020-01-1611:46","IsPass":"1","Provider":"热心网友","PictureUrl":null,"DiscussCount":1},
  {"Id":"6d6044b702814b47ab5eee592f907071","CameraType":"拍早晚高峰","District":"门头沟区","LocationDescript":"西六环老庙桥南天桥[内环方向]","RoadName":"西六环老庙桥南天桥","SupportCount":1,"OpposeCount":1,"Longitude":116.10597,"Latitude":40.0246,"CreateDateTime":"2020-03-2712:49","UpdateTimeFlag":"2020-03-2715:49","IsPass":"1","Provider":"雷锋","PictureUrl":"1","DiscussCount":4},
  {"Id":"6d8ac9f45a68481b8054231d167a2c21","CameraType":"拍进京证","District":"大兴区","LocationDescript":"清源路与仁和医院交叉口","RoadName":"清源路与仁和医院交叉口","SupportCount":1,"OpposeCount":0,"Longitude":116.340355,"Latitude":39.742516,"CreateDateTime":"2020-02-2318:18","UpdateTimeFlag":"2020-02-2318:18","IsPass":"1","Provider":"双子座","PictureUrl":null,"DiscussCount":0},
  {"Id":"6efad484e62a4ac386743a00353fdaf1","CameraType":"拍进京证","District":"朝阳区","LocationDescript":"大郊亭桥","RoadName":"广渠路","SupportCount":1,"OpposeCount":2,"Longitude":116.494217,"Latitude":39.893114,"CreateDateTime":"2020-03-2221:58","UpdateTimeFlag":"2020-03-2221:58","IsPass":"1","Provider":"bob","PictureUrl":null,"DiscussCount":0},
  {"Id":"6f8497d4f539494c98d9bb5640bf8316","CameraType":"拍进京证","District":"海淀区","LocationDescript":"四环路中关村三桥","RoadName":"四环路中关村三桥[由西向东]","SupportCount":1,"OpposeCount":0,"Longitude":116.327206,"Latitude":39.985752,"CreateDateTime":"2020-02-2718:38","UpdateTimeFlag":"2020-02-2818:38","IsPass":"1","Provider":"QUN","PictureUrl":"1","DiscussCount":5},
  {"Id":"6f9b612a00724e59a70585ad76aa9f7f","CameraType":"拍进京证","District":"大兴区","LocationDescript":"[南向北]一定要注意此位置,已经无数人中招","RoadName":"景园北街","SupportCount":26,"OpposeCount":0,"Longitude":116.519182,"Latitude":39.777179,"CreateDateTime":"2020-03-1211:05","UpdateTimeFlag":"2020-03-1211:05","IsPass":"1","Provider":"11","PictureUrl":"1","DiscussCount":12},
  {"Id":"6fa907051b674bc9a09b8391a5f61555","CameraType":"进京证与早晚高峰","District":"海淀区","LocationDescript":"保福寺桥红绿灯,西向东辅路[可能是早晚高峰]看违章截图","RoadName":"保福寺桥","SupportCount":1,"OpposeCount":0,"Longitude":116.332463,"Latitude":39.985783,"CreateDateTime":"2020-03-2610:05","UpdateTimeFlag":"2020-03-2610:05","IsPass":"1","Provider":"希","PictureUrl":"1","DiscussCount":0},
  {"Id":"6ffa2541ef9749019a21117bdea45c9e","CameraType":"拍进京证","District":"海淀区","LocationDescript":"温北路高里掌桥南西向东","RoadName":"西北六环","SupportCount":2,"OpposeCount":0,"Longitude":116.138625,"Latitude":40.066303,"CreateDateTime":"2020-01-1710:06","UpdateTimeFlag":"2020-01-1710:06","IsPass":"1","Provider":"网友实测","PictureUrl":"1","DiscussCount":1},
  {"Id":"701b38a088fb43dfb28a9dbbfe23e842","CameraType":"拍早晚高峰","District":"大兴区","LocationDescript":"清源路与兴业大街交叉口，东向西","RoadName":"清源路","SupportCount":1,"OpposeCount":0,"Longitude":116.322955,"Latitude":39.743584,"CreateDateTime":"2020-03-1219:03","UpdateTimeFlag":"2020-03-1219:03","IsPass":"1","Provider":"请叫我优秀","PictureUrl":null,"DiscussCount":0},
  {"Id":"7072e63c51bb474483cf36ac17fe1e4f","CameraType":"拍进京证","District":"大兴区","LocationDescript":"北向南","RoadName":"清源北路与兴业大街路口","SupportCount":2,"OpposeCount":0,"Longitude":116.322734,"Latitude":39.746419,"CreateDateTime":"2020-03-1908:27","UpdateTimeFlag":"2020-03-1908:27","IsPass":"1","Provider":"微笑大兴","PictureUrl":null,"DiscussCount":0},
  {"Id":"70b1676ebb4645d9bfa01eda1ce49a32","CameraType":"拍进京证","District":"昌平区","LocationDescript":"北六环北向南","RoadName":"北六环天北路方氏渠东桥","SupportCount":1,"OpposeCount":0,"Longitude":116.524279,"Latitude":40.146966,"CreateDateTime":"2020-02-1907:58","UpdateTimeFlag":"2020-02-1907:58","IsPass":"1","Provider":"好心人","PictureUrl":null,"DiscussCount":0},
  {"Id":"70cd03bef88d4d9f9d018d5cf85ed93c","CameraType":"拍进京证","District":"朝阳区","LocationDescript":"通惠河北路东向西方向，光辉桥上","RoadName":"通惠河北路-光辉桥","SupportCount":1,"OpposeCount":0,"Longitude":116.480658,"Latitude":39.905362,"CreateDateTime":"2020-04-1312:10","UpdateTimeFlag":"2020-04-1312:10","IsPass":"1","Provider":"罗伊","PictureUrl":null,"DiscussCount":0},